,Date.Sampled,Address,HCluster,longitude,latitude
0,9/4/2019,"10045 S Bell Ave, Chicago, IL",1,-87.67781490218228,41.71051425
1,7/16/2016,"10081 S Calhoun Ave, Chicago, IL",2,-87.56204067346938,41.71215663265306
2,12/17/2019,"10036 S Calumet Ave, Chicago, IL",2,-87.6153543516618,41.7116373
3,7/14/2021,"10074 S Carpenter St, Chicago, IL",3,-87.64912887390606,41.710999739017666
4,12/14/2019,"10048 S Carpenter St, Chicago, IL",3,-87.64928291694758,41.71080275
5,12/14/2021,"10050 S Lasalle St, Chicago, IL",2,-87.6322608,41.879333
6,9/16/2016,"10027 S Washtenaw Ave, Chicago, IL",4,-87.68887361752259,41.71096245
9,3/23/2022,"10159 S Lasalle St, Chicago, IL",2,-87.6322608,41.879333
10,6/18/2021,"10188 S Peoria St, Chicago, IL",1,-87.64543002695355,41.708992406982816
12,12/10/2016,"10190 S Seeley Ave, Chicago, IL",5,-87.67346020544382,41.707794691948905
13,6/28/2021,"10130 S St Lawrence Ave, Chicago, IL",1,-87.6092305560604,41.710065650000004
14,10/26/2021,"10125 S Washtenaw Ave, Chicago, IL",3,-87.68900938689589,41.70944880754576
15,5/21/2021,"10153 S Yates Ave, Chicago, IL",1,-87.56421545158824,41.71019075
16,1/24/2020,"10186 S Yates Ave, Chicago, IL",2,-87.56465141867253,41.71021088135345
17,12/20/2016,"10257 S Artesian Ave, Chicago, IL",2,-87.68282123416851,41.70744258198515
19,6/23/2021,"10250 S May St, Chicago, IL",1,-87.65148312321277,41.70796267595766
20,9/17/2019,"10226 S Oglesby Ave, Chicago, IL",2,-87.56584718620987,41.70945945768833
21,9/28/2016,"10374 S Hamilton Ave, Chicago, IL",1,-87.67563513303124,41.705150909420446
23,10/8/2016,"10393 S Prospect Ave, Chicago, IL",4,-87.66192736846983,41.70503299814669
24,8/26/2016,"10336 S St Louis Ave, Chicago, IL",2,-87.70886206964389,41.70536426984029
25,7/25/2016,"10391 S Vernon Ave, Chicago, IL",1,-87.61239527306569,41.70572468031627
28,3/10/2022,"10493 S Avenue F, Chicago, IL",2,-87.530342,41.704769285714285
29,3/2/2019,"10410 S Avenue J, Chicago, IL",2,-87.534189,41.706104673257684
30,6/8/2021,"10421 S Calumet Ave, Chicago, IL",2,-87.61465143839163,41.70475315
31,11/30/2021,"10493 S Corliss Ave, Chicago, IL",2,-87.60380104823986,41.70399265221513
32,6/17/2021,"10460 S Eggleston Ave, Chicago, IL",3,-87.63440625533296,41.70394572384547
33,9/14/2021,"10468 S Rhodes Ave, Chicago, IL",3,-87.61012988529927,41.70413282149982
34,11/1/2021,"10447 S Springfield Ave, Chicago, IL",3,-87.7182384861348,41.70322482927981
35,1/13/2017,"10446 S Trumbull Ave, Chicago, IL",2,-87.70762973177496,41.7029008
36,10/10/2019,"10532 S Central Park Ave, Chicago, IL",4,-87.71126882604533,41.70137365
37,12/13/2017,"10580 S Christiana Ave, Chicago, IL",5,-87.70504682780086,41.700323357262064
38,4/25/2018,"10588 S Christiana Ave, Chicago, IL",2,-87.70504460596833,41.700261841164505
40,10/29/2019,"10599 S Homan Ave, Chicago, IL",4,-87.70591718115197,41.700423916234556
41,3/13/2020,"10546 S Kedzie Ave, Chicago, IL",1,-87.70128203318218,41.70135735293234
42,11/4/2021,"10528 S Kedzie Ave, Chicago, IL",2,-87.70129758040514,41.70180167093904
43,10/8/2019,"10572 S Oakley Ave, Chicago, IL",1,-87.67913334983116,41.70147189313365
44,8/30/2021,"10597 S Seeley Ave, Chicago, IL",2,-87.67274971398942,41.7011686347089
45,6/15/2021,"10624 S Aberdeen St, Chicago, IL",4,-87.6494830332071,41.700876005418074
46,10/19/2021,"10614 S Church St, Chicago, IL",2,-87.66048126241512,41.700794849999994
47,9/10/2019,"10636 S Drake Ave, Chicago, IL",4,-87.70978036750277,41.6998774467478
48,11/30/2021,"10619 S Eberhart Ave, Chicago, IL",5,-87.61105702325197,41.70154437528225
49,1/25/2022,"10685 S Eberhart Ave, Chicago, IL",2,-87.61103636827119,41.70078671597731
52,12/3/2019,"10612 S Normal Ave, Chicago, IL",2,-87.63568510935914,41.70111315
53,2/25/2017,"10754 S Avenue O, Chicago, IL",1,-87.54038442589342,41.69938005
54,6/15/2021,"10716 S Buffalo Ave, Chicago, IL",3,-87.54388805236789,41.7005723420007
55,9/12/2017,"10710 S Champlain Ave, Chicago, IL",1,-87.60745280752882,41.699488939062
57,10/5/2016,"10763 S Spaulding Ave, Chicago, IL",1,-87.70339471428572,41.69826518367347
59,6/21/2021,"10743 S Wallace St, Chicago, IL",4,-87.63741749505343,41.69841195
61,12/19/2019,"10894 S Avenue F, Chicago, IL",1,-87.53056573160885,41.6974538770917
62,9/4/2019,"10881 S Central Park Ave, Chicago, IL",3,-87.71062274775302,41.69548793708432
63,2/22/2020,"10845 S Drake Ave, Chicago, IL",5,-87.70943712767415,41.6960853195277
64,12/6/2021,"10849 S Eggleston Ave, Chicago, IL",2,-87.6337743536434,41.6964817
65,1/28/2020,"10882 S Green St, Chicago, IL",2,-87.64383253375097,41.696361662304696
66,3/2/2022,"10822 S Hamlin Ave, Chicago, IL",2,-87.71574662374273,41.696335726178056
67,9/3/2019,"10821 S Prospect Ave, Chicago, IL",2,-87.662979863461,41.69680535246711
68,5/28/2021,"10819 S Vernon Ave, Chicago, IL",5,-87.61199295258493,41.69757075
69,3/10/2020,"10985 S Ewing Ave, Chicago, IL",2,-87.535172,41.6958221431523
70,1/24/2020,"10930 S Lawndale Ave, Chicago, IL",2,-87.71327790970592,41.694422628626455
71,6/24/2021,"10980 S Morgan St, Chicago, IL",5,-87.64742108327971,41.69442717893775
72,9/18/2019,"10935 S Peoria St, Chicago, IL",1,-87.64459510267459,41.69496225
73,11/5/2019,"1094 N Central Park Ave, Chicago, IL",2,-87.71660059645244,41.90074063833747
74,2/7/2020,"1046 N Damen Ave, Chicago, IL",2,-87.67729871216301,41.90074254192253
76,10/9/2019,"1069 N Massasoit Ave, Chicago, IL",2,-87.76909963719403,41.89966423921772
78,9/1/2017,"1071 W 18Th St, Chicago, IL",3,-87.65247465041617,41.857925
79,7/28/2017,"1029 W Dickens Ave, Chicago, IL",1,-87.654477,41.919825
80,10/5/2016,"11094 S Central Park Ave, Chicago, IL",1,-87.71070971497889,41.69203683670879
81,1/21/2020,"11011 S Eberhart Ave, Chicago, IL",2,-87.61077961353492,41.6942489
82,11/1/2021,"11033 S Homewood Ave, Chicago, IL",3,-87.668871,41.69306
84,2/2/2022,"11057 S Sangamon St, Chicago, IL",1,-87.64511941883879,41.693318041997685
85,9/3/2021,"11149 S Avenue B, Chicago, IL",2,-87.52570943676378,41.692957670490756
86,8/24/2021,"11189 S Avenue E, Chicago, IL",1,-87.52935808698307,41.69252404022008
87,4/13/2019,"11123 S Avenue H, Chicago, IL",5,-87.532759,41.69274776804497
88,11/5/2016,"11199 S Drake Ave, Chicago, IL",1,-87.70916743082509,41.68924812833358
89,12/2/2016,"11190 S Hoyne Ave, Chicago, IL",1,-87.67379810705673,41.690299020676115
90,3/4/2022,"11186 S Loomis St, Chicago, IL",5,-87.65703001552825,41.6905604906924
93,12/5/2019,"11297 S Avenue H, Chicago, IL",1,-87.53275790607167,41.69016444887319
94,6/29/2021,"11275 S Emerald Ave, Chicago, IL",3,-87.64095964803563,41.68924375310957
96,6/21/2021,"11234 S Forrestville Ave, Chicago, IL",2,-87.60967466925895,41.690025755190234
97,6/4/2021,"11243 S Normal Ave, Chicago, IL",5,-87.63477837488372,41.6893526
98,6/4/2021,"11239 S Parnell Ave, Chicago, IL",4,-87.63614617868065,41.68988085034047
100,7/20/2018,"11246 S Spaulding Ave, Chicago, IL",5,-87.70326205698295,41.688514086198424
101,6/17/2021,"11245 S St Lawrence Ave, Chicago, IL",2,-87.60805201614806,41.689698500000006
103,7/18/2019,"11371 S Avenue L, Chicago, IL",1,-87.53637838453614,41.688787572192794
104,1/11/2020,"11346 S Cottage Grove Ave, Chicago, IL",2,-87.61106917505077,41.68790659282099
105,8/9/2021,"11333 S Hale Ave, Chicago, IL",3,-87.67138983906094,41.68735328097444
106,7/27/2021,"11381 S Homewood Ave, Chicago, IL",2,-87.67025823623425,41.686653042802625
107,6/10/2021,"11385 S Loomis St, Chicago, IL",2,-87.65668940062207,41.686609422394305
108,9/1/2021,"11360 S Lothair Ave, Chicago, IL",1,-87.67521892299987,41.68648035
109,6/23/2021,"11365 S St Lawrence Ave, Chicago, IL",2,-87.60820303811019,41.68782050865956
110,3/18/2020,"11352 S St Lawrence Ave, Chicago, IL",2,-87.60859364266055,41.6877137
111,6/25/2021,"11366 S St Lawrence Ave, Chicago, IL",2,-87.60842059724203,41.68770074816903
114,2/18/2020,"11397 S Trumbull Ave, Chicago, IL",2,-87.70665315644477,41.687307816522384
115,6/7/2021,"11425 S Ada St, Chicago, IL",2,-87.6553012509766,41.685943249999994
116,2/10/2020,"11444 S Calumet Ave, Chicago, IL",2,-87.61451868746762,41.68662648050391
117,1/27/2020,"11480 S Forrestville Ave, Chicago, IL",2,-87.60936506661493,41.685643563898815
118,6/8/2021,"11495 S Indiana Ave, Chicago, IL",1,-87.6181687887978,41.68550480652992
122,9/28/2020,"11544 S Sangamon St, Chicago, IL",2,-87.64636685324862,41.68352338911662
123,9/19/2019,"11518 S Artesian Ave, Chicago, IL",2,-87.68245232727655,41.683870850000005
124,8/27/2019,"11597 S Avenue H, Chicago, IL",3,-87.5327394243563,41.68472503889979
125,6/9/2021,"11530 S Elizabeth St, Chicago, IL",2,-87.65338150636715,41.68400295
126,8/30/2019,"11563 S Ewing Ave, Chicago, IL",3,-87.535152858911,41.68527894143989
127,10/15/2021,"11597 S Justine St, Chicago, IL",2,-87.66023056997012,41.68316679880529
128,9/29/2021,"11527 S May St, Chicago, IL",1,-87.6503590266369,41.684128400000006
130,5/24/2021,"11683 S Avenue L, Chicago, IL",3,-87.53634617138358,41.683121335419095
131,9/4/2019,"11611 S Longwood Dr, Chicago, IL",2,-87.67411400126998,41.682514316489495
132,10/4/2019,"11694 S May St, Chicago, IL",1,-87.65065987944328,41.68151816956339
133,10/16/2019,"11634 S May St, Chicago, IL",2,-87.65085126002025,41.68210945
134,10/29/2016,"11789 S Justine St, Chicago, IL",1,-87.66012466538146,41.67966462241873
135,1/21/2017,"11748 S Justine St, Chicago, IL",2,-87.66053715,41.67975155
136,8/16/2021,"11787 S Longwood Dr, Chicago, IL",2,-87.67479436611279,41.679517476453626
137,11/30/2021,"11758 S Peoria St, Chicago, IL",5,-87.64454425406048,41.6803590398345
138,12/12/2019,"11870 S Campbell Ave, Chicago, IL",1,-87.68329059385266,41.67819057535349
139,11/24/2021,"11854 S Maplewood Ave, Chicago, IL",1,-87.68453512206659,41.678811286410884
140,2/25/2017,"1174 E 48Th St, Chicago, IL",2,-87.59718521766393,41.80790228077677
141,7/29/2017,"1114 E 48Th St, Chicago, IL",2,-87.59864166190593,41.80788720951883
142,6/7/2021,"1116 E 54Th St, Chicago, IL",2,-87.59909,41.79804
143,8/23/2019,"1175 N Massasoit Ave, Chicago, IL",1,-87.76916686289736,41.90158302940585
144,6/16/2021,"1181 N Sacramento Ave, Chicago, IL",2,-87.70170298324808,41.90267329641943
145,3/3/2020,"1152 W 111Th St, Chicago, IL",2,-87.65167405,41.69246525
146,1/10/2020,"1189 W 50Th St, Chicago, IL",2,-87.6548547633354,41.803193076634116
148,3/16/2016,"1154 W George St, Chicago, IL",2,-87.65733094337381,41.93448072469546
149,3/26/2016,"1139 W Lunt Ave, Chicago, IL",2,-87.66113971163065,42.0089027
150,7/12/2021,"1112 W Morse Ave, Chicago, IL",2,-87.65974158071074,42.00809318798169
151,12/11/2018,"1173 W Webster Ave, Chicago, IL",2,-87.65783191073302,41.921586282467224
153,12/1/2021,"1149 W Wrightwood Ave, Chicago, IL",3,-87.6581193501747,41.928712250000004
154,6/17/2021,"12077 S Princeton Ave, Chicago, IL",2,-87.6296654296697,41.67479455552397
155,3/31/2022,"12129 S Justine St, Chicago, IL",2,-87.65992413742056,41.67333645383604
156,8/30/2021,"12114 S Racine Ave, Chicago, IL",1,-87.65180498920162,41.67347595
159,9/24/2019,"12190 S Wallace St, Chicago, IL",2,-87.63703580535407,41.67264558763012
161,11/7/2016,"12261 S Carpenter St, Chicago, IL",2,-87.64766851171937,41.67118372933986
162,1/30/2018,"12230 S Carpenter St, Chicago, IL",2,-87.64808748485676,41.6713723
163,3/13/2020,"12228 S Elizabeth St, Chicago, IL",2,-87.65277813659593,41.67162042877658
164,8/26/2021,"12256 S Morgan St, Chicago, IL",2,-87.64683340955983,41.67064285
165,2/13/2020,"12510 S Edbrooke Ave, Chicago, IL",1,-87.61917029053866,41.665999049999996
166,5/26/2021,"12664 S Edbrooke Ave, Chicago, IL",3,-87.61882258578558,41.66425589982487
169,8/11/2021,"12686 S Yale Ave, Chicago, IL",4,-87.62829691552092,41.66369147112733
170,7/15/2021,"12740 S Manistee Ave, Chicago, IL",3,-87.555737,41.66382824489796
171,2/22/2022,"12712 S Saginaw Ave, Chicago, IL",1,-87.55833110996113,41.664198799999994
172,6/4/2021,"12781 S Sangamon St, Chicago, IL",2,-87.64492743609037,41.661983922935875
173,9/19/2019,"12714 S Wallace St, Chicago, IL",1,-87.63671020169949,41.66244146191178
174,6/29/2021,"12858 S Morgan St, Chicago, IL",5,-87.6462815927562,41.65985645199424
175,2/14/2017,"12860 S Wallace St, Chicago, IL",2,-87.63662593140116,41.6601146201344
176,6/17/2021,"12919 S EXchange Ave, Chicago, IL",1,-87.5516908,41.66038275
177,6/17/2021,"12999 S Normal Ave, Chicago, IL",3,-87.633943,41.658777
178,7/2/2021,"1264 E 50Th St, Chicago, IL",1,-87.5954577487704,41.804273950957146
179,8/19/2019,"1254 E 71St St, Chicago, IL",2,-87.5941416935484,41.76592027419355
180,7/15/2021,"1246 E 97Th Pl, Chicago, IL",5,-87.5927842545,41.717871450000004
181,10/5/2021,"1286 N Marion Ct, Chicago, IL",1,-87.673977267879,41.905136155562936
182,2/7/2020,"1215 W Draper St, Chicago, IL",5,-87.6591906952207,41.9280461
183,9/24/2019,"1277 W Early Ave, Chicago, IL",2,-87.66282574453739,41.98638327575643
184,12/12/2017,"1218 W Norwood St, Chicago, IL",2,-87.66125845611488,41.99201385
185,9/18/2018,"1243 W Norwood St, Chicago, IL",2,-87.6620763,41.9916052
186,9/1/2016,"1254 W Victoria St, Chicago, IL",2,-87.66191502358832,41.98720853184171
188,9/29/2018,"13165 S Avenue N, Chicago, IL",3,-87.5385685594032,41.65618216191028
189,1/3/2020,"13192 S Burley Ave, Chicago, IL",1,-87.54482859770646,41.65572255044759
190,9/11/2019,"13112 S Muskegon Ave, Chicago, IL",4,-87.55471351671429,41.656898
191,8/20/2021,"13284 S Avenue M, Chicago, IL",2,-87.53757105849196,41.653983400296624
192,8/2/2019,"13229 S Avenue N, Chicago, IL",1,-87.53856774610654,41.65480499751433
193,10/28/2021,"1381 E 52Nd St, Chicago, IL",2,-87.5923979990155,41.80088709691838
194,7/17/2019,"1393 E 55Th Pl, Chicago, IL",2,-87.5919074168864,41.79540585785809
195,3/30/2017,"1392 E 87Th St, Chicago, IL",3,-87.59040045454545,41.73693272727273
196,8/31/2021,"1369 E 88Th Pl, Chicago, IL",1,-87.59262701918937,41.73400235712615
197,8/5/2021,"1389 N Maplewood Ave, Chicago, IL",1,-87.69069398726549,41.90634749061956
198,7/7/2016,"1374 N Monitor Ave, Chicago, IL",1,-87.77193720618529,41.90516525342811
199,10/16/2019,"1364 W 108Th St, Chicago, IL",4,-87.65494949019342,41.69775378853495
200,2/28/2022,"1332 W 109Th St, Chicago, IL",3,-87.65549597157403,41.6959209780326
201,5/23/2021,"1348 W 61St St, Chicago, IL",2,-87.65892800113065,41.78341175
204,12/8/2021,"1382 W Carmen Ave, Chicago, IL",2,-87.66423352501232,41.974631922629115
207,8/23/2016,"1354 W Winona St, Chicago, IL",2,-87.6637183248744,41.97545055799053
208,12/7/2018,"1388 W Winona St, Chicago, IL",2,-87.66437257367534,41.97544084373879
209,2/22/2022,"1434 E 54Th St, Chicago, IL",1,-87.590242,41.798147
210,2/8/2017,"1499 E 54Th St, Chicago, IL",2,-87.589221,41.797996
211,9/15/2021,"1441 E 66Th Pl, Chicago, IL",3,-87.59029902154884,41.77413049522605
212,12/20/2019,"1482 E 90Th Pl, Chicago, IL",2,-87.59011040799766,41.73055551642933
213,9/28/2021,"1434 N Kolin Ave, Chicago, IL",2,-87.73532473881286,41.90719875
214,5/27/2021,"1435 N Lockwood Ave, Chicago, IL",5,-87.75808792141373,41.90695695
215,9/16/2019,"1421 N Lorel Ave, Chicago, IL",3,-87.75930777540282,41.90652535
217,10/8/2021,"1431 N Wood St, Chicago, IL",2,-87.67239866666667,41.9080915
218,12/13/2021,"1497 N Wood St, Chicago, IL",2,-87.67241985714286,41.90894933333333
219,2/17/2022,"1470 W 103Rd St, Chicago, IL",2,-87.65997493883204,41.706808306121495
220,8/27/2021,"1458 W 107Th St, Chicago, IL",4,-87.65957449999999,41.69965259999999
221,2/6/2020,"1453 W 123Rd St, Chicago, IL",2,-87.65839548148148,41.67021603703704
222,2/7/2022,"1493 W Carmen Ave, Chicago, IL",5,-87.66727102051802,41.97430108996352
223,1/31/2022,"1426 W Edgewater Ave, Chicago, IL",2,-87.6661252299338,41.9865134
224,11/15/2021,"1429 W Farragut Ave, Chicago, IL",1,-87.66597899379656,41.9769616
226,7/25/2018,"1415 W Flournoy St, Chicago, IL",2,-87.66244925146268,41.873100699999995
227,5/24/2018,"1471 W George St, Chicago, IL",2,-87.66539400241425,41.93418749211078
228,2/11/2020,"1438 W Glenlake Ave, Chicago, IL",2,-87.6662084402206,41.99273390416166
229,8/3/2018,"1416 W Lill Ave, Chicago, IL",5,-87.664183950251,41.9281462
230,10/31/2018,"1464 W Lill Ave, Chicago, IL",3,-87.66475781632653,41.9280031632653
231,10/28/2016,"1488 W Melrose St, Chicago, IL",2,-87.66592663685525,41.94073019203931
232,2/26/2020,"1415 W Norwood St, Chicago, IL",2,-87.6656611442025,41.991673248197465
233,10/1/2018,"1444 W Olive Ave, Chicago, IL",2,-87.6662600162731,41.9845890266388
234,3/3/2020,"1419 W Rascher Ave, Chicago, IL",3,-87.665638,41.980717
235,2/17/2017,"1444 W Rosemont Ave, Chicago, IL",5,-87.66715126555096,41.9966365
236,8/10/2016,"1467 W Superior St, Chicago, IL",2,-87.66500276781719,41.8950163
238,7/27/2018,"1475 W Winnemac Ave, Chicago, IL",2,-87.66716244415585,41.97329543128077
239,6/6/2019,"1541 E 76Th Pl, Chicago, IL",2,-87.58762098119108,41.755925060529954
240,12/17/2019,"1550 E 84Th Pl, Chicago, IL",2,-87.58715730530149,41.74153006891591
241,11/16/2020,"1559 E 86Th St, Chicago, IL",5,-87.58698852704545,41.73863217631959
242,6/16/2021,"1591 E 86Th St, Chicago, IL",5,-87.58658330540909,41.73863763526392
243,7/1/2016,"1584 N Claremont Ave, Chicago, IL",2,-87.68608983008401,41.90958036445331
244,8/3/2021,"1575 N Kedzie Ave, Chicago, IL",1,-87.70688273581933,41.90977550619751
245,5/28/2021,"1596 N Long Ave, Chicago, IL",1,-87.76104054202924,41.90929815362844
248,8/4/2021,"1586 W 100Th Pl, Chicago, IL",2,-87.66213116984044,41.71138308877732
249,8/15/2019,"1533 W Edgewater Ave, Chicago, IL",2,-87.66950020588236,41.98585794117647
250,2/26/2020,"1554 W Roscoe St, Chicago, IL",5,-87.66780630518213,41.94343981106229
251,10/27/2020,"1534 W Wolfram St, Chicago, IL",1,-87.6673249947944,41.93341091803842
252,10/19/2021,"1626 N Burling St, Chicago, IL",2,-87.64720135177767,41.911813357661515
253,10/13/2016,"1648 N Cleveland Ave, Chicago, IL",2,-87.6413681332542,41.9124597
254,11/1/2021,"1680 N Francisco Ave, Chicago, IL",5,-87.69924695903227,41.91198777738361
255,6/4/2021,"1627 N Keeler Ave, Chicago, IL",2,-87.73098234315201,41.9107269
257,9/3/2019,"1620 N Nashville Ave, Chicago, IL",2,-87.79023055743212,41.909763
258,11/8/2021,"1620 N Normandy Ave, Chicago, IL",2,-87.79269187031326,41.90977325
259,3/24/2017,"1667 W 100Th Pl, Chicago, IL",1,-87.66412025801726,41.711108885485636
260,10/21/2019,"1675 W 102Nd St, Chicago, IL",2,-87.66523509151197,41.70815241631891
261,7/14/2021,"1685 W Albion Ave, Chicago, IL",5,-87.67101628498817,42.00163595765003
267,12/27/2018,"1627 W Summerdale Ave, Chicago, IL",2,-87.67078291050682,41.9786922
268,1/27/2020,"1626 W Touhy Ave, Chicago, IL",2,-87.67085336240511,42.012783953345334
269,10/6/2020,"1712 E 84Th St, Chicago, IL",1,-87.58229160046749,41.74264075
270,10/20/2020,"1715 W 94Th St, Chicago, IL",5,-87.66546260270906,41.72279125
271,8/2/2018,"1731 N Dayton St, Chicago, IL",2,-87.64929425,41.91366415
272,10/3/2019,"1781 N Harding Ave, Chicago, IL",1,-87.72510056744653,41.912966550523876
273,3/6/2020,"1784 N Harding Ave, Chicago, IL",2,-87.72532248320431,41.91301842679258
275,6/7/2017,"1732 N Melvina Ave, Chicago, IL",2,-87.78051762646294,41.912027300000005
276,7/19/2021,"1745 N Merrimac Ave, Chicago, IL",3,-87.78109654817148,41.91223105
277,7/19/2021,"1777 N Mobile Ave, Chicago, IL",2,-87.78268360487644,41.912318929759465
279,8/17/2021,"1752 N Nashville Ave, Chicago, IL",5,-87.79028638333332,41.9124214
280,10/14/2021,"1750 N Nashville Ave, Chicago, IL",3,-87.7900900152545,41.91182156585392
281,1/13/2020,"1721 N Newland Ave, Chicago, IL",1,-87.79841044264973,41.911242051559114
283,3/29/2019,"1797 N North Park, Chicago, IL",2,-87.7208917,41.9805872
284,7/8/2016,"1790 N Rutherford Ave, Chicago, IL",3,-87.7937807527461,41.91242152056954
285,11/4/2016,"1714 N Rutherford Ave, Chicago, IL",1,-87.79374355859746,41.911200866198335
286,1/16/2018,"1733 N Rutherford Ave, Chicago, IL",2,-87.79353225901895,41.91149329844503
287,2/26/2018,"1785 N Rutherford Ave, Chicago, IL",2,-87.79355756258771,41.91232901827798
288,7/28/2016,"1781 N Rutherford Ave, Chicago, IL",2,-87.79355557161816,41.91226473354621
289,10/6/2016,"1726 N Rutherford Ave, Chicago, IL",5,-87.79374936712681,41.911393603105154
290,2/2/2018,"1767 N Rutherford Ave, Chicago, IL",2,-87.79354877211006,41.9120397316417
291,2/25/2020,"1790 N Rutherford Ave, Chicago, IL",2,-87.7937807527461,41.91242152056954
293,12/6/2019,"1720 N Talman Ave, Chicago, IL",1,-87.69369861491936,41.9127395
294,8/25/2021,"1783 N Troy St, Chicago, IL",5,-87.70564347485714,41.91335803629431
295,6/28/2019,"1722 W 100Th Pl, Chicago, IL",1,-87.66577933694415,41.71137135
296,12/18/2019,"1771 W 105Th St, Chicago, IL",2,-87.66624284094063,41.7027975287066
297,10/14/2021,"1784 W 106Th St, Chicago, IL",4,-87.66648370117957,41.70113665517183
298,4/5/2018,"1734 W 18Th Pl, Chicago, IL",2,-87.67003279734078,41.857025300000004
299,6/16/2021,"1792 W 89Th St, Chicago, IL",5,-87.66762303729607,41.73214
302,9/6/2019,"1752 W Henderson St, Chicago, IL",2,-87.67241525805825,41.94245911546077
303,1/3/2020,"1769 W Highland Ave, Chicago, IL",2,-87.67441856321432,41.996712535214286
304,9/22/2018,"1742 W School St, Chicago, IL",2,-87.67283846522233,41.941653099999996
305,8/20/2019,"1737 W Thorndale Ave, Chicago, IL",5,-87.67331209846488,41.98843651959859
306,12/9/2019,"1784 W Wrightwood Ave, Chicago, IL",2,-87.6726488676474,41.92880159144042
307,12/30/2016,"1899 N Dayton St, Chicago, IL",2,-87.649538,41.915892
308,3/25/2017,"1885 N Dayton St, Chicago, IL",1,-87.64952832940786,41.91561243197262
309,11/10/2021,"1886 N Dayton St, Chicago, IL",2,-87.64974993437494,41.91564751640455
310,7/16/2016,"1880 N Dayton St, Chicago, IL",2,-87.64974556247883,41.915527768822365
311,1/10/2017,"1878 N Dayton St, Chicago, IL",3,-87.649744203649,41.91548784942198
312,1/10/2017,"1891 N Dayton St, Chicago, IL",5,-87.64953247394736,41.9157322468415
313,10/13/2016,"1876 N Dayton St, Chicago, IL",3,-87.6497428448192,41.91544793002159
314,1/10/2017,"1880 N Dayton St, Chicago, IL",5,-87.64974556247883,41.915527768822365
315,4/24/2017,"1890 N Dayton St, Chicago, IL",5,-87.64975295624996,41.9157273442697
316,7/24/2017,"1833 N Dayton St, Chicago, IL",5,-87.64936354846375,41.91470255
317,6/4/2018,"1875 N Dayton St, Chicago, IL",5,-87.64937847625629,41.915925599999994
318,10/13/2019,"1855 N Dayton St, Chicago, IL",3,-87.64935542310994,41.9153659
319,12/12/2019,"1862 N Hudson Ave, Chicago, IL",5,-87.64006408965334,41.915888300474
325,5/27/2021,"1825 N Luna Ave, Chicago, IL",2,-87.76404788159203,41.9138478
326,2/9/2022,"1887 N Mobile Ave, Chicago, IL",2,-87.7821334103354,41.914311947246354
328,1/24/2020,"1872 N Mohawk St, Chicago, IL",3,-87.64249829166666,41.916251208333335
329,12/13/2021,"1889 N Natchez Ave, Chicago, IL",2,-87.78831367745302,41.914276992953894
330,9/28/2021,"1841 N New England Ave, Chicago, IL",2,-87.79704457958334,41.913886000000005
331,2/1/2022,"1816 N Wilmot Ave, Chicago, IL",1,-87.68295416635746,41.914824634015766
333,9/21/2019,"1851 S Fairfield Ave, Chicago, IL",1,-87.6940848936555,41.85591505
334,9/28/2019,"1870 S Fairfield Ave, Chicago, IL",2,-87.69445616799604,41.85611372610044
335,9/3/2019,"1893 W 34Th St, Chicago, IL",4,-87.67262528365654,41.83216513230054
336,4/30/2016,"1812 W Cuyler Ave, Chicago, IL",2,-87.67527644379942,41.95522871042344
337,7/26/2021,"1829 W Estes Ave, Chicago, IL",2,-87.67709213149868,42.01114455
338,8/27/2016,"1888 W Wellington Ave, Chicago, IL",3,-87.6755141567257,41.93604282920298
340,1/14/2017,"1935 N Dayton St, Chicago, IL",3,-87.64943590874317,41.917047999999994
341,4/22/2017,"1928 N Dayton St, Chicago, IL",1,-87.6497849113191,41.91667715558882
342,12/22/2018,"1958 N Dayton St, Chicago, IL",1,-87.64980432453709,41.91725910065796
344,9/16/2019,"1971 N Humboldt Blvd, Chicago, IL",2,-87.70253020750906,41.91687844355893
345,11/24/2021,"1961 N Lincoln Ave, Chicago, IL",2,-87.63789383010382,41.9179727
346,12/9/2021,"1948 N Oakley Ave, Chicago, IL",3,-87.68505453208019,41.91714723492632
348,3/19/2022,"1970 S Loomis St, Chicago, IL",2,-87.66136236678383,41.855463583115494
349,12/13/2016,"1931 W 115Th St, Chicago, IL",2,-87.66943106976744,41.68458944186047
351,1/27/2020,"1974 W Addison St, Chicago, IL",2,-87.67826215384615,41.94694984615385
352,8/17/2018,"1961 W Bradley Pl, Chicago, IL",4,-87.6782176,41.949521520000005
353,8/18/2021,"1975 W Bradley Pl, Chicago, IL",2,-87.6782638,41.94952096
356,8/11/2021,"1962 W Estes Ave, Chicago, IL",2,-87.680052,42.0113946923077
357,10/7/2021,"1924 W Evergreen Ave, Chicago, IL",2,-87.67556681972106,41.90645840153513
359,2/8/2022,"1975 W Henderson St, Chicago, IL",2,-87.6777484273473,41.94222851642393
360,8/9/2018,"1924 W Nelson St, Chicago, IL",2,-87.67685489931696,41.93705145
361,3/22/2022,"111 E 117Th St, Chicago, IL",2,-87.61973634693878,41.68148591836735
362,3/19/2022,"186 N Leamington Ave, Chicago, IL",2,-87.75408773210982,41.883991221839764
363,8/27/2021,"187 N Lorel Ave, Chicago, IL",2,-87.75877487148158,41.88442081837258
364,6/2/2021,"193 S Homan Ave, Chicago, IL",2,-87.710831,41.87885202980288
365,3/7/2020,"2037 E 73Rd St, Chicago, IL",2,-87.57479032432433,41.76244964864865
366,4/30/2021,"2074 E 99Th St, Chicago, IL",3,-87.57289509090909,41.71533054545455
367,12/16/2016,"2072 N Bissell St, Chicago, IL",2,-87.65230524109869,41.91946219602241
368,5/4/2017,"2096 N Bissell St, Chicago, IL",1,-87.65231609402271,41.919789707434234
370,3/25/2022,"2026 N Kenmore Ave, Chicago, IL",4,-87.65511148191132,41.91882535
371,11/8/2021,"2052 N New England Ave, Chicago, IL",5,-87.79757998366264,41.91745486537607
372,11/16/2021,"2037 N Sheffield Ave, Chicago, IL",1,-87.65312599999999,41.91921925
374,12/3/2021,"2077 W 21St St, Chicago, IL",4,-87.67770129825605,41.853903152882054
375,4/8/2017,"2049 W 21St St, Chicago, IL",4,-87.67780011603148,41.85375045
377,9/29/2017,"2074 W Berwyn Ave, Chicago, IL",2,-87.68129529059728,41.97790555466757
378,2/4/2019,"2080 W Bradley Pl, Chicago, IL",2,-87.68050656911262,41.94965679763134
379,2/8/2020,"2037 W Bradley Pl, Chicago, IL",5,-87.68018484631777,41.94938145
380,7/13/2021,"2019 W Chase Ave, Chicago, IL",4,-87.68134072421876,42.01384055
383,2/28/2017,"2085 W Evergreen Ave, Chicago, IL",2,-87.6795142988247,41.90589307701792
384,2/28/2017,"2080 W Lunt Ave, Chicago, IL",2,-87.68332102096588,42.0091787
386,2/2/2022,"2028 W Ohio St, Chicago, IL",2,-87.6781852852324,41.89246325
388,10/22/2021,"2088 W Thomas St, Chicago, IL",2,-87.6788340232136,41.90142232336736
389,10/17/2018,"2017 W Willow St, Chicago, IL",2,-87.67819657394045,41.91374098419356
390,2/27/2020,"2198 E 96Th St, Chicago, IL",1,-87.571173,41.720755
391,3/25/2017,"2110 N Hudson Ave, Chicago, IL",2,-87.64024775,41.9204713
394,3/29/2022,"2186 S Drake Ave, Chicago, IL",2,-87.71375186751429,41.85234689141719
395,12/3/2016,"2170 W 110Th Pl, Chicago, IL",1,-87.67627827774646,41.693109484944294
396,1/7/2017,"2142 W 110Th Pl, Chicago, IL",2,-87.6760984,41.69326685
397,3/24/2017,"2148 W 110Th St, Chicago, IL",1,-87.67609559581447,41.69432515
398,7/2/2019,"2135 W 115Th St, Chicago, IL",3,-87.67516548293735,41.68396909744374
399,7/30/2021,"2180 W 118Th St, Chicago, IL",4,-87.67608209940809,41.67946595
400,2/1/2022,"2166 W 19Th St, Chicago, IL",2,-87.67999079430302,41.85587199600675
401,5/17/2021,"2195 W 66Th St, Chicago, IL",2,-87.67724223781988,41.773765169903456
402,2/3/2020,"2112 W 75Th Pl, Chicago, IL",1,-87.67619353031932,41.7571277
403,4/6/2019,"2124 W 82Nd Pl, Chicago, IL",2,-87.67704535288497,41.74429945
404,4/14/2016,"2158 W Belle Plaine Ave, Chicago, IL",1,-87.68288475839798,41.95600606901577
405,1/25/2022,"2171 W Erie St, Chicago, IL",2,-87.68109971203248,41.893029572245034
406,12/16/2021,"2164 W Greenleaf Ave, Chicago, IL",1,-87.68531880344865,42.01011120520319
407,3/18/2020,"2141 W Lunt Ave, Chicago, IL",1,-87.6848329174083,42.00875129456537
408,1/27/2017,"2149 W Pensacola Ave, Chicago, IL",4,-87.68190532843911,41.96041424420262
410,7/14/2017,"2268 N Campbell Ave, Chicago, IL",3,-87.68944555697648,41.92289952789831
412,9/6/2019,"2252 N Kildare Ave, Chicago, IL",5,-87.73430670620283,41.92227645
413,2/28/2022,"2216 N Lakewood Ave, Chicago, IL",2,-87.66089851429125,41.92227929573474
414,10/28/2016,"2263 N Lakewood Ave, Chicago, IL",1,-87.66069932988623,41.92291494137538
415,5/10/2018,"2261 N Lakewood Ave, Chicago, IL",1,-87.66069857730925,41.92289210455682
416,11/17/2018,"2224 N Lawndale Ave, Chicago, IL",3,-87.71968673581617,41.921701
417,4/4/2022,"2218 N Magnolia Ave, Chicago, IL",2,-87.65989019792231,41.92227185
419,3/28/2022,"2259 N Rockwell Ave, Chicago, IL",3,-87.694916,42.0176244
420,11/15/2021,"2287 W 110Th Pl, Chicago, IL",2,-87.67898459917879,41.692894422291076
421,5/19/2021,"2261 W 69Th St, Chicago, IL",2,-87.68029766771149,41.768284410739206
422,1/28/2017,"2285 W Berwyn Ave, Chicago, IL",2,-87.68644696902462,41.97766756330701
423,8/24/2021,"2227 W Birchwood Ave, Chicago, IL",5,-87.68760493877551,42.01749165306123
424,10/20/2016,"2262 W Estes Ave, Chicago, IL",4,-87.68733685915569,42.01113425160099
426,2/8/2020,"2226 W Leland Ave, Chicago, IL",4,-87.68478122328897,41.966917402129894
429,10/28/2016,"2255 W Shakespeare Ave, Chicago, IL",4,-87.6847918,41.92057764
431,3/9/2022,"2277 W Winnemac Ave, Chicago, IL",3,-87.68611086709814,41.972996795508614
432,11/30/2021,"2379 N Lakewood Ave, Chicago, IL",4,-87.6607502200713,41.92446104808887
433,2/18/2020,"2318 N Monticello Ave, Chicago, IL",3,-87.71845609941444,41.9233891
434,7/19/2021,"2390 N Normandy Ave, Chicago, IL",1,-87.7924976343887,41.922967300438
435,2/19/2020,"2391 N Rutherford Ave, Chicago, IL",3,-87.79368171859558,41.92296099505851
436,3/19/2019,"2350 S Marshall Blvd, Chicago, IL",2,-87.69912015140932,41.84912951078293
437,2/24/2022,"2354 W 107Th St, Chicago, IL",2,-87.68067167416056,41.69914571819176
438,7/13/2021,"2338 W 110Th St, Chicago, IL",2,-87.67965895141508,41.69407689908183
439,9/15/2016,"2381 W 110Th St, Chicago, IL",3,-87.68063519054562,41.69389414212835
440,8/3/2021,"2313 W 116Th Pl, Chicago, IL",4,-87.67938673941897,41.681799750961915
441,11/26/2019,"2350 W 35Th Pl, Chicago, IL",2,-87.68314964928229,41.82938861187714
442,10/14/2021,"2369 W 80Th St, Chicago, IL",3,-87.68154585626016,41.74822713364698
443,4/1/2022,"2350 W Iowa St, Chicago, IL",2,-87.68560671327008,41.89766517967291
444,5/21/2021,"2470 E 74Th St, Chicago, IL",5,-87.56401599489867,41.760915000065125
445,8/29/2017,"2430 N Bernard St, Chicago, IL",5,-87.71368146492432,41.92568165
446,8/23/2021,"2426 N Fairfield Ave, Chicago, IL",2,-87.69649871863733,41.925693800000005
447,2/21/2020,"2437 N Lawndale Ave, Chicago, IL",1,-87.71935033315847,41.92547913622504
448,6/21/2021,"2452 N Monitor Ave, Chicago, IL",2,-87.77238096601681,41.92548535
449,10/7/2019,"2424 S Lawndale Ave, Chicago, IL",2,-87.71742703994815,41.84749725011778
450,9/21/2018,"2411 S Oakley Ave, Chicago, IL",4,-87.682977,41.848174
451,3/29/2022,"2474 S Ridgeway Ave, Chicago, IL",1,-87.71862700954682,41.84669027924672
453,2/28/2020,"2446 W Berteau Ave, Chicago, IL",1,-87.69044774874459,41.9578561
454,12/7/2018,"2455 W Byron St, Chicago, IL",5,-87.6905427523779,41.95197175
456,10/6/2021,"2454 W Homer St, Chicago, IL",2,-87.68896892909196,41.91674015269514
458,10/15/2021,"2453 W Polk St, Chicago, IL",2,-87.68825984563001,41.870965
459,12/6/2021,"2487 W Superior St, Chicago, IL",2,-87.6889276300862,41.894720704602875
460,7/13/2021,"2517 E 81St St, Chicago, IL",1,-87.56293514318244,41.748055594877876
461,7/15/2021,"2570 E 93Rd St, Chicago, IL",2,-87.56135698902163,41.72637546354852
462,8/14/2018,"2544 E 96Th St, Chicago, IL",4,-87.56177538470584,41.7204020837379
463,3/30/2022,"2567 N Seminary Ave, Chicago, IL",3,-87.65625980060975,41.9287160182926
464,8/19/2016,"2576 N Central Park Ave, Chicago, IL",4,-87.7169709854493,41.92803150042588
465,10/8/2021,"2570 N Harding Ave, Chicago, IL",2,-87.72575764033155,41.927903853040775
466,9/29/2021,"2516 N Harding Ave, Chicago, IL",2,-87.72587608591772,41.926865649999996
468,11/23/2021,"2511 N Linden Pl, Chicago, IL",5,-87.70494685702883,41.92672915
469,7/28/2018,"2584 N Linden Pl, Chicago, IL",2,-87.70610601324562,41.92705369842105
470,10/27/2018,"2511 N Linden Pl, Chicago, IL",2,-87.70494685702883,41.92672915
472,1/28/2022,"2549 N Oak Park Ave, Chicago, IL",2,-87.79521502988534,41.92631444347876
473,1/27/2022,"2545 N Sheffield Ave, Chicago, IL",2,-87.65360432258065,41.9284445483871
474,4/8/2022,"2591 N Sheffield Ave, Chicago, IL",5,-87.65361767741936,41.928821451612905
475,8/21/2018,"2594 N Spaulding Ave, Chicago, IL",2,-87.71074756732719,41.92818671735014
476,4/15/2016,"2543 N St Louis Ave, Chicago, IL",2,-87.71437629890777,41.927698750000005
477,10/17/2019,"2526 N St Louis Ave, Chicago, IL",1,-87.71493949039296,41.927272849999994
478,12/4/2019,"2561 S Princeton Ave, Chicago, IL",2,-87.6345048747569,41.84578646042398
479,8/27/2019,"2583 W 109Th St, Chicago, IL",1,-87.68583236196787,41.69531178448439
480,11/8/2021,"2541 W 117Th St, Chicago, IL",5,-87.68495422372807,41.680774654507005
481,1/19/2017,"2547 W 45Th Pl, Chicago, IL",1,-87.68896148148148,41.81101285185186
482,7/18/2017,"2594 W 80Th Pl, Chicago, IL",4,-87.68797433333333,41.74737533333334
483,4/4/2018,"2576 W 80Th Pl, Chicago, IL",3,-87.68771573333333,41.74737953333333
484,11/8/2018,"2568 W Belden Ave, Chicago, IL",2,-87.6911723065306,41.923176033274494
486,10/10/2019,"2569 W Hutchinson St, Chicago, IL",1,-87.69327979332701,41.95846420375953
487,7/22/2016,"2585 W Jarvis Ave, Chicago, IL",5,-87.69447141552106,42.01573165963151
488,1/21/2022,"2633 E 79Th St, Chicago, IL",4,-87.5599335402581,41.75166795
490,4/1/2022,"2690 N Sacramento Ave, Chicago, IL",5,-87.702575917915,41.93004372029405
491,6/29/2017,"2664 N Seminary Ave, Chicago, IL",2,-87.65631626920583,41.930367504112695
492,6/23/2021,"2640 S Komensky Ave, Chicago, IL",2,-87.7259908527087,41.84302435
493,11/5/2019,"2666 W 104Th St, Chicago, IL",5,-87.68794396958528,41.704586
494,6/4/2021,"2646 W 24Th Pl, Chicago, IL",1,-87.69225942399817,41.8478242
495,10/19/2019,"2668 W 79Th Pl, Chicago, IL",2,-87.68867435714286,41.74918942857143
496,8/28/2019,"2676 W 83Rd Pl, Chicago, IL",2,-87.68926291990674,41.7418954573601
498,2/1/2022,"2676 W Wilson Ave, Chicago, IL",2,-87.69543259183673,41.964884591836736
499,10/17/2019,"2688 W Wilson Ave, Chicago, IL",5,-87.69568263265306,41.96488263265306
500,3/3/2022,"2648 W Windsor Ave, Chicago, IL",2,-87.69441562723989,41.96403709825279
501,11/3/2021,"2799 N Bosworth Ave, Chicago, IL",1,-87.667076,41.932298
506,12/30/2019,"2772 N Racine Ave, Chicago, IL",1,-87.65880700385839,41.93219010289049
507,2/10/2020,"2787 N Seminary Ave, Chicago, IL",5,-87.655731,41.93242685714286
508,11/9/2021,"2784 N Troy St, Chicago, IL",2,-87.70630157436783,41.93168444642277
509,5/20/2017,"2789 N Wayne Ave, Chicago, IL",3,-87.66245450000001,41.932329375
510,1/7/2020,"2717 N Whipple St, Chicago, IL",1,-87.70360329826399,41.930739000628506
511,2/28/2016,"2761 N Wilton Ave, Chicago, IL",2,-87.65249565158531,41.931648816371485
512,4/20/2017,"2763 N Wilton Ave, Chicago, IL",2,-87.65249640341065,41.93167151035851
513,1/17/2020,"2790 S Kildare Ave, Chicago, IL",2,-87.73186166176151,41.84072689396152
514,8/2/2021,"2765 W 15Th Pl, Chicago, IL",1,-87.69454685720233,41.86006616780958
515,6/29/2021,"2711 W 23Rd Pl, Chicago, IL",2,-87.69323598015012,41.84911700810846
517,4/11/2022,"2751 W Farwell Ave, Chicago, IL",2,-87.69937335088031,42.00556275
518,9/11/2019,"2756 W LeXington St, Chicago, IL",3,-87.69463785246256,41.8720689960906
519,2/4/2020,"2751 W LeXington St, Chicago, IL",3,-87.69454198448554,41.871905841852396
520,3/31/2019,"2762 W Logan Blvd, Chicago, IL",2,-87.69685583385984,41.928114579623774
521,7/29/2019,"2767 W Logan Blvd, Chicago, IL",2,-87.69692166649646,41.92811384815003
522,4/6/2022,"2786 W Lunt Ave, Chicago, IL",1,-87.69935564671425,42.00855182577687
523,10/7/2019,"2779 W Morse Ave, Chicago, IL",3,-87.69920665121087,42.00658506581862
524,7/27/2021,"2748 W Nelson St, Chicago, IL",5,-87.696989,41.936744
525,8/20/2019,"2763 W Wilson Ave, Chicago, IL",2,-87.69851361576363,41.9645742
526,11/13/2019,"2898 N Lawndale, Chicago, IL",3,-87.7183883,41.8600324
528,1/21/2022,"2874 N Richmond St, Chicago, IL",3,-87.7014448002672,41.933449031692604
529,11/2/2016,"2859 N Ridgeway Ave, Chicago, IL",2,-87.72077746127557,41.933034372770216
530,4/28/2017,"2834 N Ridgeway Ave, Chicago, IL",2,-87.72112175000001,41.932925850000004
534,9/20/2021,"2873 S Poplar Ave, Chicago, IL",2,-87.649903,41.841653
535,10/25/2021,"2858 W 103rd Pl, Chicago, IL",4,-87.6258729,41.7062288
536,6/4/2021,"2824 W 38Th St, Chicago, IL",2,-87.69602913749443,41.824667900662284
537,10/29/2021,"2891 W Balmoral Ave, Chicago, IL",1,-87.70118504043295,41.979374757512836
538,9/6/2019,"2849 W Chase Ave, Chicago, IL",3,-87.70201982524102,42.01355905
541,6/10/2021,"2816 W Division St, Chicago, IL",2,-87.69757185759666,41.90300147454045
542,8/4/2021,"2876 W Division St, Chicago, IL",2,-87.69960809662665,41.90298289116377
543,11/30/2021,"2832 W Eastwood Ave, Chicago, IL",4,-87.69963361788146,41.965879799999996
545,9/14/2021,"2844 W Greenleaf Ave, Chicago, IL",3,-87.70084570338514,42.00942117619273
546,3/29/2022,"2861 W Gregory St, Chicago, IL",2,-87.70081263293818,41.98211653644643
547,10/14/2021,"2816 W Leland Ave, Chicago, IL",3,-87.69985226182571,41.96677903141279
548,2/3/2022,"2894 W Nelson St, Chicago, IL",2,-87.69997200550497,41.936726934590375
549,7/16/2021,"2821 W Rascher Ave, Chicago, IL",1,-87.69996749424413,41.980175450000004
550,9/24/2021,"2929 E 101St St, Chicago, IL",2,-87.55144257142858,41.711759
551,5/21/2021,"2994 E 89Th St, Chicago, IL",2,-87.55222635079245,41.733801685352965
552,9/30/2021,"2940 N Woodard St, Chicago, IL",2,-87.71029175759149,41.9349268
553,2/9/2022,"2937 N Burling St, Chicago, IL",2,-87.64770821857661,41.93486513892627
554,2/3/2022,"2981 N Kildare Ave, Chicago, IL",2,-87.73477440825424,41.93501450278603
555,10/21/2021,"2990 N Lowell Ave, Chicago, IL",2,-87.73600876458957,41.9350972905555
556,11/17/2020,"2924 N Luna Ave, Chicago, IL",3,-87.76539621937269,41.933929199999994
557,11/10/2020,"2933 N Melvina Ave, Chicago, IL",4,-87.78080001301174,41.9335408968582
558,7/30/2021,"2936 N Nora Ave, Chicago, IL",2,-87.8021010542821,41.933319283562234
560,11/15/2021,"2973 N Racine Ave, Chicago, IL",2,-87.65871468961673,41.935802998885364
561,9/21/2021,"2922 N Richmond St, Chicago, IL",5,-87.70189960058141,41.934638449999994
562,10/5/2021,"2994 N Sacramento Ave, Chicago, IL",2,-87.70249833155276,41.93556749560934
563,11/29/2021,"2973 N Sacramento Ave, Chicago, IL",1,-87.70249668636558,41.93547298480303
564,1/6/2020,"2954 N Spaulding Ave, Chicago, IL",3,-87.71019391805012,41.935465300000004
565,2/1/2022,"2941 N Talman Ave, Chicago, IL",2,-87.6937223754812,41.935170400000004
567,10/15/2016,"2934 N Troy St, Chicago, IL",1,-87.70637740629994,41.934534829947545
570,7/23/2021,"2981 S Haynes Ct, Chicago, IL",2,-87.65690678571428,41.839517
571,10/7/2019,"2972 W 39Th Pl, Chicago, IL",2,-87.69883649535049,41.82188127643814
572,12/16/2021,"2917 W Balmoral Ave, Chicago, IL",2,-87.7022487996954,41.97936834895925
573,9/15/2018,"2929 W Belden Ave, Chicago, IL",2,-87.70104285044232,41.9230522
575,10/6/2016,"2996 W Catalpa Ave, Chicago, IL",5,-87.7042869790454,41.981346251260256
576,2/24/2017,"2996 W Catalpa Ave, Chicago, IL",2,-87.7042869790454,41.981346251260256
578,12/15/2021,"2918 W Giddings St, Chicago, IL",3,-87.7016868028459,41.967852050000005
579,8/15/2019,"2942 W Giddings St, Chicago, IL",2,-87.70167942423983,41.96767685242033
580,9/22/2021,"2946 W Leland Ave, Chicago, IL",2,-87.70238578792605,41.966757239684455
582,3/24/2022,"2958 W Pratt Blvd, Chicago, IL",3,-87.70393612386276,42.004851177369865
584,10/20/2021,"294 E 87Th St, Chicago, IL",3,-87.61797944521683,41.7365329978621
585,9/5/2019,"215 E 90Th Pl, Chicago, IL",3,-87.6183018389053,41.72988665
586,3/10/2022,"3093 E 79Th Pl, Chicago, IL",2,-87.54953471198561,41.75096435122242
587,7/28/2021,"3056 N Christiana Ave, Chicago, IL",2,-87.71130611310693,41.93668229824104
589,11/18/2021,"3065 N Kenneth Ave, Chicago, IL",2,-87.73807295752754,41.93645154146248
591,1/25/2022,"3019 N Linder Ave, Chicago, IL",2,-87.7636588,41.93558575
592,1/17/2020,"3017 N Lowell Ave, Chicago, IL",3,-87.73563286610786,41.9358981
593,8/3/2021,"3060 N Mango Ave, Chicago, IL",2,-87.77016213003142,41.93596514169513
596,8/14/2018,"3018 S Farrell St, Chicago, IL",1,-87.6517042490618,41.839061634439375
597,5/31/2018,"3026 W Belden Ave, Chicago, IL",2,-87.70340119882934,41.92354520000001
598,2/5/2020,"3087 W Chase Ave, Chicago, IL",2,-87.70636193660182,42.013652660531775
600,6/2/2021,"3036 W Fulton Blvd, Chicago, IL",1,-87.7038233,41.8864529
601,9/18/2017,"3058 W Warren Blvd, Chicago, IL",5,-87.6693297,41.8823549
602,12/17/2021,"3118 N Bernard St, Chicago, IL",3,-87.71395818974963,41.9380447
603,12/6/2021,"3155 N Clifton Ave, Chicago, IL",1,-87.657853625,41.93955014583334
604,10/1/2019,"3120 N Oconto Ave, Chicago, IL",5,-87.80821859249806,41.93698975
605,9/15/2016,"3129 N Osceola Ave, Chicago, IL",5,-87.81269577370415,41.93664715940656
606,12/7/2019,"3151 N Richmond St, Chicago, IL",3,-87.70135445022771,41.937998890696086
607,11/9/2018,"3191 N Seminary Ave, Chicago, IL",1,-87.6564208,41.939716600000004
609,9/22/2018,"3147 S Kedvale Ave, Chicago, IL",3,-87.72770655716982,41.83547275
610,3/9/2020,"3169 S Pulaski Rd, Chicago, IL",5,-87.72421083302082,41.83558463298104
611,8/29/2019,"3116 W 103rd St, Chicago, IL",1,-87.69964980538782,41.70628093893951
612,11/5/2016,"3164 W 103rd St, Chicago, IL",4,-87.70047149652358,41.706275665821124
613,2/24/2020,"3154 W Jarlath St, Chicago, IL",2,-87.70780519244595,42.01287773242485
615,9/10/2021,"3299 N Avers Ave, Chicago, IL",5,-87.723446,41.940383
616,10/8/2019,"3298 N Nottingham Ave, Chicago, IL",5,-87.804439,41.939725
617,9/1/2021,"3292 N Oketo Ave, Chicago, IL",2,-87.8115279122034,41.93952840254258
618,1/15/2020,"3260 N Plainfield Ave, Chicago, IL",3,-87.8337901974545,41.93879399814447
619,10/30/2019,"3255 S Carpenter, Chicago, IL",3,-87.7652474,41.9934168
620,7/16/2016,"3240 S Carpenter St, Chicago, IL",1,-87.65250250595027,41.83470265
621,8/10/2018,"3235 S Lituanica Ave, Chicago, IL",2,-87.6485334697081,41.835381833945284
622,8/27/2019,"3226 S Lowe Ave, Chicago, IL",3,-87.64282004811764,41.835457500000004
624,12/10/2021,"3211 S Union Ave, Chicago, IL",2,-87.64348919781321,41.835865
625,10/27/2019,"3289 W 112Th Pl, Chicago, IL",5,-87.70293920292107,41.68868315167377
626,9/13/2021,"3281 W 84Th Pl, Chicago, IL",1,-87.70411103557261,41.739640269633966
628,1/30/2020,"3316 N Kilpatrick Ave, Chicago, IL",4,-87.74422115186046,41.94125715
630,12/1/2021,"3362 N Newland Ave, Chicago, IL",2,-87.79961320708195,41.94103459149557
632,3/18/2020,"3373 N Olcott Ave, Chicago, IL",2,-87.81406994320459,41.94088475493982
634,9/20/2021,"3373 N Plainfield Ave, Chicago, IL",1,-87.83365128623623,41.94085040864616
635,3/2/2022,"3384 N Pulaski Rd, Chicago, IL",2,-87.727411,41.942981333333336
636,3/7/2019,"3345 N Ridgeway Ave, Chicago, IL",3,-87.7209140236111,41.9423484
637,5/18/2021,"3396 S Calumet Ave, Chicago, IL",2,-87.61827533504771,41.833244757528625
638,3/21/2022,"3357 S Lowe Ave, Chicago, IL",2,-87.6422049,41.832835849999995
639,9/27/2021,"3342 S May St, Chicago, IL",5,-87.65480558769121,41.833934054082675
640,5/14/2019,"3318 S Paulina St, Chicago, IL",2,-87.66812542204435,41.833016615640936
642,9/9/2016,"3454 N Avers Ave, Chicago, IL",1,-87.72394704999999,41.94440485
643,5/31/2017,"3463 N Hamilton Ave, Chicago, IL",2,-87.68201645365465,41.94446765758504
645,1/26/2017,"3414 N Kildare Ave, Chicago, IL",2,-87.73479863279239,41.942983311695905
646,9/15/2018,"3411 N Kildare Ave, Chicago, IL",4,-87.7344126192857,41.943019899999996
647,8/1/2021,"3466 N Neva Ave, Chicago, IL",4,-87.80579249397653,41.94282934367649
648,3/11/2017,"3492 N Opal Ave, Chicago, IL",1,-87.82294267478453,41.942904554037234
649,5/20/2017,"3450 N Pacific Ave, Chicago, IL",1,-87.82681175506497,41.942595499999996
650,8/24/2017,"3412 N Pacific Ave, Chicago, IL",1,-87.82679941365555,41.941615049999996
651,3/6/2018,"3470 N Pacific Ave, Chicago, IL",2,-87.82663741442866,41.94245873428795
652,9/13/2018,"3484 N Pacific Ave, Chicago, IL",2,-87.82664801747909,41.9426948758005
653,11/21/2018,"3426 N Pacific Ave, Chicago, IL",3,-87.82660421232836,41.941716569692765
654,12/17/2018,"3450 N Pacific Ave, Chicago, IL",3,-87.82681175506497,41.942595499999996
655,3/25/2019,"3441 N Pacific Ave, Chicago, IL",2,-87.82639472998267,41.94195767020086
656,12/19/2019,"3445 N Panama Ave, Chicago, IL",2,-87.82884979681914,41.942394534468576
657,9/30/2019,"3448 N Tripp Ave, Chicago, IL",2,-87.73378352144039,41.9440911
658,10/1/2021,"3414 N Tripp Ave, Chicago, IL",5,-87.73376446678782,41.943198949999996
659,6/9/2021,"3416 N Tripp Ave, Chicago, IL",5,-87.73357144438582,41.943016478295476
660,1/31/2020,"3499 S Aberdeen St, Chicago, IL",4,-87.653325,41.832135
661,2/28/2022,"3481 S Hermitage Ave, Chicago, IL",2,-87.66908444985484,41.83124773796021
662,6/4/2021,"3497 S Paulina St, Chicago, IL",1,-87.66784614990699,41.830606720210135
663,12/20/2016,"3473 S Union Ave, Chicago, IL",5,-87.64358246357297,41.83167690191216
664,9/25/2019,"3418 W 115Th St, Chicago, IL",2,-87.70597288031331,41.68425794869862
665,6/19/2019,"3490 W 116Th St, Chicago, IL",4,-87.70744966770945,41.682413127559144
666,11/13/2017,"3446 W 66Th Pl, Chicago, IL",2,-87.7089838823506,41.77259404936329
667,4/1/2021,"3465 W 82Nd Pl, Chicago, IL",1,-87.70883928890943,41.7432238460328
668,1/25/2022,"3492 W Beach Ave, Chicago, IL",3,-87.71397644545247,41.90738179725876
669,8/17/2021,"3483 W Beach Ave, Chicago, IL",5,-87.71375753004317,41.907219204754355
670,8/16/2021,"3418 W Hirsch St, Chicago, IL",3,-87.71267403957589,41.9066348
671,3/9/2020,"3462 W Medill Ave, Chicago, IL",1,-87.7132494432475,41.92381993095681
672,2/13/2020,"3446 W Melrose St, Chicago, IL",5,-87.71445461213983,41.940369950000004
673,10/7/2021,"3497 W Monroe St, Chicago, IL",2,-87.71334873408597,41.87948052130607
674,12/16/2019,"3443 W Wrightwood Ave, Chicago, IL",3,-87.71369123553843,41.928215
675,8/22/2019,"3551 N Damen Ave, Chicago, IL",1,-87.6784048,41.9467343
676,7/20/2018,"3551 N Kolmar Ave, Chicago, IL",4,-87.74079429239812,41.94508472126468
677,2/27/2019,"3531 N Kolmar Ave, Chicago, IL",4,-87.74061211171875,41.94535175
680,1/21/2020,"3517 N Oriole Ave, Chicago, IL",2,-87.81641788942902,41.9438369
681,10/26/2019,"3523 N Ozark Ave, Chicago, IL",3,-87.82029558700869,41.943599636083206
682,1/31/2020,"3576 N Seeley Ave, Chicago, IL",1,-87.67985183076406,41.94600394443658
685,8/10/2018,"3579 S Hoyne Ave, Chicago, IL",2,-87.67757185607141,41.82889802418305
686,8/3/2019,"3590 W 53Rd Pl, Chicago, IL",5,-87.6476654,41.7968998
687,11/10/2021,"3589 W 72Nd St, Chicago, IL",2,-87.71189497688025,41.76234379734015
688,11/22/2021,"3545 W 73Rd St, Chicago, IL",2,-87.71104304066101,41.76053186683897
689,4/15/2022,"3590 W 73Rd St, Chicago, IL",2,-87.71192525812563,41.76068366023777
690,2/10/2022,"3579 W 77Th Pl, Chicago, IL",3,-87.71171976785715,41.75248035714286
691,1/28/2020,"3540 W Congress Pkwy, Chicago, IL",2,-87.71448304579374,41.8747104
692,8/2/2018,"3550 W Evergreen Ave, Chicago, IL",3,-87.71631095000001,41.905661550000005
693,3/5/2020,"3581 W Hirsch St, Chicago, IL",1,-87.71612689874966,41.90629657690269
694,2/17/2022,"3538 W Melrose St, Chicago, IL",3,-87.71605475051352,41.940349299999994
695,1/26/2022,"3554 W Pierce Ave, Chicago, IL",5,-87.71662019732219,41.909268
696,2/15/2019,"3598 W Pierce Ave, Chicago, IL",2,-87.716609,41.909154
697,1/14/2017,"3560 W Pierce Ave, Chicago, IL",2,-87.71578849828191,41.90916308789573
698,8/28/2019,"3626 N Artesian Ave, Chicago, IL",4,-87.68976396829733,41.94756495
700,9/1/2021,"3618 N Christiana Ave, Chicago, IL",5,-87.71162199999374,41.94717199976279
701,3/4/2020,"3616 N Harding Ave, Chicago, IL",1,-87.72644629977373,41.94695375
702,10/1/2018,"3684 N Kimball Ave, Chicago, IL",5,-87.7128665485615,41.94804159398494
703,10/13/2021,"3615 N Sacramento Ave, Chicago, IL",4,-87.70283154541684,41.94725454417267
704,1/31/2022,"3657 N Sacramento Ave, Chicago, IL",2,-87.70270065,41.94836115
705,2/10/2020,"3676 N Tripp Ave, Chicago, IL",2,-87.73390040999216,41.94763488918386
708,7/27/2016,"3642 S Winchester Ave, Chicago, IL",5,-87.67411839765485,41.82777783865657
710,5/16/2016,"3620 W 115Th St, Chicago, IL",2,-87.71105399590257,41.684182069501354
711,2/23/2022,"3686 W 117Th St, Chicago, IL",4,-87.71225828764454,41.68050728844629
712,1/27/2020,"3640 W 79Th Pl, Chicago, IL",2,-87.71321675515249,41.748808237583546
713,6/11/2018,"3689 W 79Th Pl, Chicago, IL",2,-87.71419003316078,41.74862806763921
714,12/20/2017,"3671 W 86Th St, Chicago, IL",4,-87.7135008616502,41.73673970411571
715,7/28/2021,"3665 W Wrightwood Ave, Chicago, IL",2,-87.71890951200714,41.92814868766109
716,12/1/2021,"3665 W Wrightwood Ave, Chicago, IL",2,-87.71890951200714,41.92814868766109
717,9/17/2019,"3748 N Bell Ave, Chicago, IL",2,-87.68498911180076,41.9500497
718,7/22/2019,"3752 N Lawndale, Chicago, IL",5,-87.7183883,41.8600324
720,11/26/2016,"3775 N Olcott Ave, Chicago, IL",2,-87.81433732981812,41.948172837350164
722,11/29/2019,"3775 N Plainfield Ave, Chicago, IL",4,-87.83398874477993,41.947954532491856
725,9/18/2019,"3721 N Whipple St, Chicago, IL",1,-87.70397027479305,41.94915435
726,10/20/2016,"3754 N Whipple St, Chicago, IL",4,-87.70433939666077,41.94946693584002
728,12/28/2019,"3757 S Union Ave, Chicago, IL",2,-87.64328909448108,41.8255001
729,3/6/2020,"3748 S Wallace St, Chicago, IL",2,-87.64137095533442,41.8257129
730,6/10/2019,"3736 W 103Rd St, Chicago, IL",4,-87.71451246775077,41.70608172580633
731,10/13/2021,"3742 W 50Th Pl, Chicago, IL",5,-87.71779198938452,41.8016648
732,10/12/2021,"3749 W 54Th St, Chicago, IL",1,-87.71748564888946,41.79505198222221
733,3/12/2019,"3777 W 60Th Pl, Chicago, IL",2,-87.71733795061944,41.78320856189587
734,9/8/2021,"3760 W 60Th Pl, Chicago, IL",2,-87.71699577886092,41.7833784446525
737,9/17/2019,"3836 N Avers Ave, Chicago, IL",2,-87.72397355861668,41.95098184942133
739,11/19/2021,"3858 N Janssen Ave, Chicago, IL",2,-87.66606320042686,41.95237815
742,6/9/2021,"3833 N Lakewood Ave, Chicago, IL",2,-87.66145535066607,41.95203155
746,3/10/2022,"3820 N Nottingham Ave, Chicago, IL",2,-87.80499462433924,41.9496157
747,10/8/2019,"3835 N Page Ave, Chicago, IL",2,-87.82775004999999,41.949676999999994
751,10/3/2018,"3850 N Seeley Ave, Chicago, IL",2,-87.68000353196194,41.95154602217608
752,2/20/2020,"3890 S Calumet Ave, Chicago, IL",2,-87.61833593597783,41.82440253108195
753,11/29/2021,"3866 W 61St Pl, Chicago, IL",2,-87.71952506500266,41.78151899077547
754,1/6/2020,"3881 W 65Th St, Chicago, IL",1,-87.71965861116996,41.774975991798016
755,8/13/2021,"3899 W 68Th St, Chicago, IL",4,-87.719911,41.769512
756,9/14/2021,"3879 W 75Th Pl, Chicago, IL",4,-87.71997583708642,41.75633153972116
757,7/12/2021,"3838 W 80Th Pl, Chicago, IL",3,-87.71792499120671,41.74689852992459
758,10/3/2019,"3851 W Flournoy St, Chicago, IL",2,-87.72202179591837,41.87249830612245
759,5/17/2021,"3853 W Grenshaw St, Chicago, IL",2,-87.72183459979026,41.86703773412012
760,10/21/2020,"3943 N Hermitage Ave, Chicago, IL",2,-87.6723663,41.953692000000004
761,3/13/2020,"3977 N Francisco Ave, Chicago, IL",5,-87.70054770843545,41.95309867355967
762,9/15/2018,"3927 N Keeler Ave, Chicago, IL",2,-87.73232518725523,41.952325204575715
765,11/20/2020,"3961 N Mobile Ave, Chicago, IL",1,-87.78346252536726,41.95249299212488
766,7/30/2021,"3987 N Mozart St, Chicago, IL",1,-87.69934727888645,41.95379235464482
768,1/21/2020,"3910 N Oakley Ave, Chicago, IL",2,-87.68610217740412,41.952466393485025
769,2/11/2020,"3978 N Oriole Ave, Chicago, IL",2,-87.81717027272728,41.952313545454544
770,4/5/2022,"3977 N Page Ave, Chicago, IL",5,-87.82797957142284,41.9513915916918
771,12/20/2019,"3971 N Pioneer Ave, Chicago, IL",2,-87.83190289472292,41.95189293387096
772,9/27/2019,"3943 N Ravenswood Ave, Chicago, IL",2,-87.67431499060326,41.9539580635968
773,12/19/2019,"3931 N Whipple St, Chicago, IL",5,-87.70421108249114,41.95298104555827
774,11/22/2021,"3937 W 105Th St, Chicago, IL",1,-87.71981367802067,41.7020613
775,10/14/2021,"3954 W 58Th Pl, Chicago, IL",4,-87.72187101142326,41.78694607713907
776,5/3/2019,"3998 W 64Th Pl, Chicago, IL",3,-87.721919,41.77601
777,5/21/2019,"3938 W 84Th Pl, Chicago, IL",2,-87.71990145829817,41.739541040638834
778,9/9/2021,"3936 W Cornelia Ave, Chicago, IL",2,-87.726401180875,41.94477715
779,8/13/2019,"391 E 89Th Pl, Chicago, IL",4,-87.61474695837174,41.73184769072771
780,7/18/2016,"342 E 89Th Pl, Chicago, IL",1,-87.61581282568476,41.731995559168546
781,10/15/2021,"353 E 89Th Pl, Chicago, IL",3,-87.61558755723591,41.731834664918864
782,3/25/2016,"352 W 100Th Pl, Chicago, IL",4,-87.63289203208112,41.71182675
783,6/10/2021,"348 W 100Th Pl, Chicago, IL",5,-87.63279765864553,41.711828249999996
784,5/18/2017,"353 W Wellington Ave, Chicago, IL",4,-87.63891238527097,41.936508
787,2/7/2022,"4058 N Keystone Ave, Chicago, IL",2,-87.7293607111272,41.95482877836105
789,11/27/2018,"4052 N Kolmar Ave, Chicago, IL",3,-87.74210196028571,41.9550746
792,9/20/2019,"4066 N Plainfield Ave, Chicago, IL",1,-87.83436136421341,41.95345328547342
793,11/26/2019,"4077 S Campbell Ave, Chicago, IL",5,-87.68710703067995,41.81966694712762
794,6/23/2021,"4059 S Campbell Ave, Chicago, IL",1,-87.68696395881622,41.819401850000006
795,10/4/2021,"4141 N Bell Ave, Chicago, IL",5,-87.68467015,41.95712245
796,12/23/2019,"4123 N Harding Ave, Chicago, IL",2,-87.72634940549698,41.95597200058143
798,8/24/2021,"4137 N Keeler Ave, Chicago, IL",3,-87.7322201085141,41.9565567
800,2/24/2022,"4194 N Kilbourn Ave, Chicago, IL",2,-87.74073703262484,41.956927872362904
801,11/28/2018,"4130 N Lawndale Ave, Chicago, IL",2,-87.72044430861104,41.95617884858315
804,9/8/2021,"4145 N Mcvicker Ave, Chicago, IL",1,-87.77797738424796,41.9556949375423
806,9/15/2021,"4145 N St Louis Ave, Chicago, IL",5,-87.71533394299294,41.95647379443712
808,5/18/2021,"4169 S Berkeley Ave, Chicago, IL",2,-87.6004844855967,41.81816225
811,12/9/2019,"4138 W Nelson St, Chicago, IL",2,-87.73090695280906,41.936387385607034
812,10/11/2019,"4127 W Wellington Ave, Chicago, IL",2,-87.73043127968424,41.93531539896514
813,8/18/2016,"4217 N Avers Ave, Chicago, IL",2,-87.72395845048806,41.95790945273217
814,8/19/2017,"4211 N Avers Ave, Chicago, IL",2,-87.72376750135592,41.9577544
815,11/22/2021,"4225 N Kedvale Ave, Chicago, IL",1,-87.73086117084105,41.957774397393656
816,12/8/2018,"4249 N Mason Ave, Chicago, IL",5,-87.77546077022296,41.9581717
817,2/24/2022,"4223 N Meade Ave, Chicago, IL",3,-87.77925362579863,41.9571464357
818,9/23/2019,"4273 N Sacramento Ave, Chicago, IL",5,-87.70318280868698,41.9591617721583
819,10/4/2021,"4222 N Sawyer Ave, Chicago, IL",3,-87.70968382835387,41.9582305
820,11/28/2018,"4292 S Indiana Ave, Chicago, IL",2,-87.62152282373921,41.81678120035074
821,12/6/2019,"4230 S Prairie Ave, Chicago, IL",2,-87.61993656882831,41.817892772563226
822,9/13/2019,"4219 S Prairie Ave, Chicago, IL",5,-87.61949415677638,41.81782285
823,7/28/2021,"4239 W Roscoe St, Chicago, IL",2,-87.73376749436731,41.942566
824,9/19/2018,"4273 W Wellington Ave, Chicago, IL",2,-87.73456151363736,41.9352886971854
825,11/24/2021,"4331 N Avers Ave, Chicago, IL",5,-87.72402085903042,41.96002806606456
826,3/9/2020,"4323 N Bernard St, Chicago, IL",2,-87.71420943839202,41.95967533541911
827,1/20/2017,"4351 N Harding Ave, Chicago, IL",3,-87.72648546377705,41.96065092301204
828,3/16/2022,"4315 N Lowell Ave, Chicago, IL",2,-87.73686952096033,41.9593704389144
829,11/9/2019,"4378 N Ridgeway Ave, Chicago, IL",2,-87.72179107376918,41.96021384180844
830,10/3/2019,"4335 S Berkeley Ave, Chicago, IL",2,-87.60034599714089,41.815823949999995
831,3/4/2020,"4313 S Forrestville Ave, Chicago, IL",5,-87.61258285009225,41.81623305
832,7/27/2021,"4495 N Bernard St, Chicago, IL",1,-87.71430323329837,41.96276533643792
834,10/7/2017,"4447 N Damen Ave, Chicago, IL",2,-87.67834554654442,41.96277685
835,7/27/2021,"4488 N Drake Ave, Chicago, IL",2,-87.7169673166352,41.96267157821465
836,10/20/2021,"4471 N Francisco Ave, Chicago, IL",5,-87.70084027621309,41.962565012441765
838,2/24/2022,"4483 N Marmora Ave, Chicago, IL",2,-87.77451293142555,41.961911339904695
839,8/9/2021,"4445 N Mason Ave, Chicago, IL",4,-87.77557285675303,41.96171095
842,4/7/2018,"4427 N Menard Ave, Chicago, IL",5,-87.77188294999999,41.96126825
843,11/30/2016,"4433 N Monticello Ave, Chicago, IL",3,-87.71897132950726,41.9620697
844,8/26/2019,"4475 N Mozart St, Chicago, IL",5,-87.69961955082576,41.96262587134145
846,7/30/2018,"4454 N Sawyer Ave, Chicago, IL",5,-87.70979376506617,41.962763800000005
847,1/7/2020,"4437 S Drake Ave, Chicago, IL",5,-87.71246210260496,41.81280666823706
848,11/25/2019,"4425 S Emerald Ave, Chicago, IL",3,-87.6443548265894,41.81417247937742
849,10/27/2019,"4437 W 81St Pl, Chicago, IL",2,-87.73241778495085,41.744683
851,11/6/2018,"4432 W Jackson Blvd, Chicago, IL",2,-87.73672800830951,41.87721615
852,10/22/2016,"4485 W Leland Ave, Chicago, IL",5,-87.74098738069341,41.96619165613837
854,3/17/2022,"4553 N Beacon St, Chicago, IL",2,-87.66365540903404,41.96445245562406
857,3/17/2022,"4548 N Kenneth Ave, Chicago, IL",2,-87.74019377695382,41.96405755
858,11/7/2018,"4552 N Kostner Ave, Chicago, IL",2,-87.73882867707727,41.96420965
860,3/1/2017,"4573 N Malden St, Chicago, IL",2,-87.66228427907896,41.96484204146221
861,9/10/2019,"4536 N Meade Ave, Chicago, IL",2,-87.77988507541265,41.96330135
863,7/28/2018,"4580 N Merrimac Ave, Chicago, IL",2,-87.78355136504207,41.964398700000004
864,4/7/2022,"4593 N Sacramento Ave, Chicago, IL",2,-87.70333516313092,41.964100383320066
865,1/4/2018,"4534 N Springfield Ave, Chicago, IL",2,-87.72573337196262,41.9638686
866,8/31/2021,"4513 N Virginia Ave, Chicago, IL",2,-87.69481760441725,41.96370100464975
867,6/13/2018,"4583 N Virginia Ave, Chicago, IL",1,-87.6949732006807,41.96386396733319
872,6/3/2019,"4543 W Altgeld St, Chicago, IL",2,-87.74011442877787,41.92622744441971
873,5/17/2021,"4517 W Maypole Ave, Chicago, IL",2,-87.73883647907064,41.884282
874,1/14/2020,"4554 W Schubert Ave, Chicago, IL",5,-87.74135319318766,41.92976265
875,10/19/2021,"4688 N Avers Ave, Chicago, IL",2,-87.72441668419287,41.96617219683461
876,1/22/2020,"4664 N Kasson Ave, Chicago, IL",4,-87.73493527054873,41.96551555
877,11/30/2021,"4620 N Knox Ave, Chicago, IL",2,-87.74406672503845,41.96485986735756
879,8/2/2018,"4619 N Laramie Ave, Chicago, IL",2,-87.75751734751636,41.96490778569826
880,10/27/2021,"4649 N Winchester Ave, Chicago, IL",2,-87.67752475,41.96658853571429
881,7/16/2016,"4686 N Winchester Ave, Chicago, IL",2,-87.67774944444444,41.966757888888885
882,9/1/2021,"4684 S Ashland Ave, Chicago, IL",5,-87.66508921286292,41.808928004557345
883,7/16/2021,"4686 S Avers Ave, Chicago, IL",5,-87.72004022173367,41.80853111809038
884,3/8/2019,"4627 S Hermitage Ave, Chicago, IL",2,-87.66853599406963,41.809630930316224
885,1/25/2022,"4628 W Addison St, Chicago, IL",2,-87.74359602872197,41.94640465
887,2/8/2022,"4746 N Karlov Ave, Chicago, IL",3,-87.7306972427013,41.966983549999995
888,3/31/2022,"4767 N Kewanee Ave, Chicago, IL",1,-87.73173534680696,41.96636622849911
889,6/1/2021,"4721 S Champlain Ave, Chicago, IL",2,-87.60991747704918,41.808855300000005
890,7/29/2016,"4717 S Greenwood Ave, Chicago, IL",3,-87.59914804299918,41.80925466594922
891,1/6/2017,"4742 S Greenwood Ave, Chicago, IL",2,-87.59935674598213,41.80861454164485
892,1/31/2020,"4752 S Kenwood Ave, Chicago, IL",4,-87.59388632988448,41.80821830870958
893,5/7/2018,"4754 S Kimbark Ave, Chicago, IL",2,-87.59529854364035,41.808296333640435
894,4/25/2017,"4790 S Kimbark Ave, Chicago, IL",2,-87.5952928253272,41.808025248886196
895,8/4/2017,"4740 S Kimbark Ave, Chicago, IL",2,-87.59556601721852,41.808405050000005
896,9/20/2021,"4789 W Addison St, Chicago, IL",5,-87.74597315550487,41.94605952858543
897,11/14/2019,"4739 W Race Ave, Chicago, IL",2,-87.7447669,41.8902998
898,9/29/2021,"4856 N California Ave, Chicago, IL",1,-87.69884927025036,41.97004116926157
899,3/29/2022,"4813 N Hermitage Ave, Chicago, IL",2,-87.67249921588422,41.969300189660096
901,4/5/2022,"4810 N Merrimac Ave, Chicago, IL",2,-87.78447426530612,41.96914489795918
903,8/2/2021,"4891 S Keeler Ave, Chicago, IL",2,-87.72827273306098,41.804406057250944
904,8/2/2021,"4894 S Keeler Ave, Chicago, IL",2,-87.72849087426891,41.80433852840131
906,7/31/2018,"4864 S Langley Ave, Chicago, IL",1,-87.60903115112359,41.80652903981017
907,2/9/2022,"4894 S Laporte Ave, Chicago, IL",1,-87.74683887612423,41.80411332425944
908,2/7/2022,"4863 S Lavergne Ave, Chicago, IL",4,-87.74785519382945,41.804613940891585
913,5/17/2021,"4867 W Quincy St, Chicago, IL",5,-87.74703100860661,41.87758645525785
914,3/5/2020,"4811 W Wrightwood Ave, Chicago, IL",1,-87.74742920523445,41.92781436511309
917,10/4/2018,"4965 N Hamilton Ave, Chicago, IL",1,-87.68284696388808,41.971673571271964
918,11/2/2020,"4947 N Hamilton Ave, Chicago, IL",2,-87.6827290688259,41.9718856
919,9/18/2021,"4998 N Kildare Ave, Chicago, IL",2,-87.735642,41.971679
920,10/1/2021,"4918 N Kildare Ave, Chicago, IL",2,-87.73578335981782,41.9706353
923,2/23/2022,"4926 N Ridgeway Ave, Chicago, IL",3,-87.72209171656648,41.97067160312411
924,11/15/2019,"4964 N Seeley Ave, Chicago, IL",4,-87.68060936850267,41.971704948545955
926,6/22/2021,"4924 S Laporte Ave, Chicago, IL",1,-87.74682024984325,41.803414351096905
927,12/22/2016,"4922 S Washington Park Ct, Chicago, IL",2,-87.61530265209942,41.8050353
928,9/3/2019,"4932 W Augusta Blvd, Chicago, IL",1,-87.74919990881781,41.89872849372128
929,12/4/2019,"4928 W Barry Ave, Chicago, IL",2,-87.75051066065573,41.937183950000005
931,8/13/2021,"4952 W Eddy St, Chicago, IL",1,-87.75159162292414,41.94542705
932,3/22/2022,"4929 W Erie St, Chicago, IL",2,-87.7493363620915,41.89198135
933,1/13/2018,"4981 W Roscoe St, Chicago, IL",5,-87.75134105953997,41.94233782531844
934,8/11/2021,"4953 W Roscoe St, Chicago, IL",3,-87.7507344895612,41.94234565468637
936,12/9/2019,"4994 W Waveland Ave, Chicago, IL",5,-87.75182977200109,41.947976808038824
937,2/9/2022,"414 E 46Th St, Chicago, IL",2,-87.615863,41.811291
938,3/16/2020,"411 E 87Th St, Chicago, IL",4,-87.6140377440639,41.73642734900627
939,1/13/2020,"435 E 90Th St, Chicago, IL",2,-87.61349176915745,41.730955424080506
940,9/23/2019,"457 E 91St Pl, Chicago, IL",2,-87.61206869443436,41.728110900000004
941,10/18/2021,"472 W Briar Pl, Chicago, IL",2,-87.64187456941217,41.93880817107801
942,1/27/2022,"467 W Webster Ave, Chicago, IL",2,-87.64104084539372,41.92184877968649
943,3/30/2022,"5092 N Avers Ave, Chicago, IL",4,-87.72465034470181,41.97354100914193
944,11/7/2018,"5037 N Avers Ave, Chicago, IL",5,-87.72440798374073,41.97279734420427
945,11/9/2018,"5025 N Avers Ave, Chicago, IL",2,-87.72440341907718,41.9726373440097
946,10/20/2021,"5056 N Avers Ave, Chicago, IL",3,-87.72482631205861,41.9736052
947,12/18/2019,"5033 N Bernard St, Chicago, IL",5,-87.71443141848567,41.9730688
948,1/21/2020,"5060 N Drake Ave, Chicago, IL",5,-87.71727737037037,41.973489962962965
950,2/10/2022,"5081 N Kilbourn Ave, Chicago, IL",2,-87.74050096108995,41.97326487160872
953,12/17/2019,"5097 N Menard Ave, Chicago, IL",3,-87.77325967970067,41.973720073618956
955,10/10/2019,"5085 N Mozart St, Chicago, IL",2,-87.69996346682478,41.97364313879986
960,12/27/2019,"5050 N Sayre Ave, Chicago, IL",2,-87.80135173824046,41.973064816573256
962,7/20/2021,"5057 S Laporte Ave, Chicago, IL",5,-87.74653991385047,41.801073855542484
963,6/10/2016,"5018 S Washtenaw Ave, Chicago, IL",2,-87.69187593938193,41.80220825
964,12/17/2021,"5099 W Berteau Ave, Chicago, IL",2,-87.754637,41.956898
965,10/16/2018,"5035 W Cornelia Ave, Chicago, IL",1,-87.75333445,41.94395405
966,8/27/2021,"5082 W Dakin St, Chicago, IL",2,-87.7541538850032,41.952468271989794
968,9/24/2021,"5088 W Newport Ave, Chicago, IL",5,-87.75429403829237,41.943377364420954
969,8/17/2021,"5013 W Oakdale Ave, Chicago, IL",3,-87.75222117101985,41.933988299999996
970,3/22/2022,"5034 W Strong St, Chicago, IL",1,-87.75405992012139,41.97090195
971,8/25/2021,"5087 W Waveland Ave, Chicago, IL",5,-87.75410918210144,41.94778318070608
972,1/9/2020,"5080 W Wellington Ave, Chicago, IL",3,-87.75354823201039,41.93517483599987
975,9/17/2021,"5165 N Central Park Ave, Chicago, IL",1,-87.71831627228771,41.97467177584556
976,11/25/2020,"5173 N Drake Ave, Chicago, IL",2,-87.7170990738112,41.97485644718423
977,8/19/2019,"5122 N Kenneth Ave, Chicago, IL",1,-87.73966300324199,41.9742776
978,9/17/2018,"5192 N Menard Ave, Chicago, IL",3,-87.77345142475725,41.97507871197536
979,9/21/2021,"5157 N Menard Ave, Chicago, IL",5,-87.7732398222833,41.974654002351144
980,8/30/2019,"5126 N Monticello Ave, Chicago, IL",1,-87.71975028387921,41.97433197510332
981,8/13/2019,"5127 N Neva Ave, Chicago, IL",2,-87.80562738753639,41.97444375
983,8/9/2021,"5141 N Normandy Ave, Chicago, IL",3,-87.79365108731778,41.9750055
986,7/16/2021,"5192 S Lawler Ave, Chicago, IL",2,-87.74913580607279,41.798633609077235
987,1/25/2022,"5181 S Lawndale Ave, Chicago, IL",1,-87.71586518608122,41.799158629116775
988,5/24/2021,"5171 S Loomis Blvd, Chicago, IL",1,-87.6597732620866,41.800007444481345
989,1/9/2020,"5174 S Luna Ave, Chicago, IL",2,-87.76136642228121,41.79876253325447
990,9/23/2021,"5182 S Luna Ave, Chicago, IL",5,-87.76136254769614,41.798635024181785
991,8/10/2021,"5131 S Moody Ave, Chicago, IL",2,-87.77564241640029,41.79883785
992,7/28/2016,"5164 S Mulligan Ave, Chicago, IL",2,-87.78088653918958,41.79854197350217
994,7/23/2021,"5165 W Agatite Ave, Chicago, IL",2,-87.75673097355522,41.961437452764045
995,3/31/2022,"5187 W Concord Pl, Chicago, IL",2,-87.75521651160315,41.91034446096564
997,6/24/2021,"5178 W Drummond Pl, Chicago, IL",1,-87.75522981349587,41.928780084365975
998,11/4/2021,"5168 W Nelson St, Chicago, IL",5,-87.75577532237699,41.93605596609749
999,6/8/2021,"5147 W Newport Ave, Chicago, IL",2,-87.7562717107904,41.943051350000005
1000,2/5/2020,"5179 W Parker Ave, Chicago, IL",2,-87.75529581914634,41.930426492720464
1002,12/26/2018,"5256 N Bernard St, Chicago, IL",2,-87.71509238034874,41.97737245
1003,12/3/2019,"5253 N Bernard St, Chicago, IL",1,-87.7146729879105,41.97673909385145
1004,11/25/2019,"5268 N Laramie Ave, Chicago, IL",3,-87.75792315938071,41.97658031582711
1005,8/23/2019,"5294 N Leamington Ave, Chicago, IL",3,-87.75668467843715,41.976891122889796
1006,9/23/2019,"5252 N Leamington Ave, Chicago, IL",5,-87.75685930493698,41.97676375
1007,10/21/2019,"5241 N Lind Ave, Chicago, IL",1,-87.76179028137554,41.97666065582498
1009,8/2/2021,"5293 N Magnolia Ave, Chicago, IL",2,-87.66107559761322,41.97790750413083
1011,8/30/2021,"5231 N Milwaukee Ave, Chicago, IL",2,-87.76738619587745,41.975420774024116
1012,1/23/2020,"5220 N Normandy Ave, Chicago, IL",4,-87.79421396788413,41.976286349999995
1014,9/27/2021,"5246 N Oleander Ave, Chicago, IL",1,-87.81578766666667,41.97532485714315
1015,10/21/2019,"5274 N Oriole Ave, Chicago, IL",2,-87.81701700701633,41.97574036502156
1016,8/16/2021,"5266 N Sawyer Ave, Chicago, IL",1,-87.71003796046959,41.97699689901832
1017,8/23/2021,"5213 N St Louis Ave, Chicago, IL",3,-87.71588142939643,41.9763797346735
1018,12/11/2019,"5262 N Wayne Ave, Chicago, IL",4,-87.66369414521462,41.977386089524906
1019,12/15/2021,"5293 S Kimbark Ave, Chicago, IL",2,-87.59492184124535,41.80018109919533
1020,8/13/2021,"5225 S Luna Ave, Chicago, IL",1,-87.76111757831866,41.79773633285717
1021,10/12/2021,"5249 S Melvina Ave, Chicago, IL",2,-87.77696147038378,41.79706344895032
1023,10/18/2019,"5254 S Mobile Ave, Chicago, IL",4,-87.77979822697625,41.796319499999996
1024,9/8/2021,"5238 S Monitor Ave, Chicago, IL",1,-87.7688240362003,41.796965900000004
1025,12/16/2017,"5265 S Moody Ave, Chicago, IL",1,-87.775737666603,41.79683161067303
1026,10/4/2021,"5235 S Mulligan Ave, Chicago, IL",4,-87.78062478529586,41.797213752463655
1027,11/16/2018,"5297 S Mulligan Ave, Chicago, IL",4,-87.78059493821254,41.79622489922693
1028,12/20/2021,"5224 S Mulligan Ave, Chicago, IL",3,-87.78084963915732,41.79736948863175
1029,10/3/2019,"5283 S Neenah Ave, Chicago, IL",3,-87.78548051225081,41.79637136189322
1030,1/6/2020,"5226 S Neva Ave, Chicago, IL",5,-87.80051612856737,41.79704765413842
1032,2/14/2020,"5259 S New England Ave, Chicago, IL",2,-87.79385420597961,41.796358850000004
1033,2/11/2020,"5213 S Newcastle Ave, Chicago, IL",3,-87.79279834734562,41.79629972900006
1034,2/13/2020,"5211 S Newcastle Ave, Chicago, IL",3,-87.79320890024532,41.79656335
1035,12/13/2019,"5274 S Rutherford Ave, Chicago, IL",4,-87.79058401998931,41.79642752361299
1036,10/27/2021,"5218 S Sayre Ave, Chicago, IL",3,-87.7966904370661,41.79675395192102
1037,8/6/2021,"5254 S Wells St, Chicago, IL",2,-87.63219129163805,41.79851495
1038,2/7/2017,"5248 W Argyle St, Chicago, IL",2,-87.75877612788456,41.971307550000006
1039,3/15/2022,"5225 W Belle Plaine Ave, Chicago, IL",5,-87.75763154801598,41.955034800635886
1040,2/6/2020,"5297 W Belle Plaine Ave, Chicago, IL",2,-87.75881152523849,41.955185994321745
1041,8/20/2019,"5237 W Byron St, Chicago, IL",1,-87.75851520344828,41.95135196962389
1042,2/2/2017,"5293 W Cuyler Ave, Chicago, IL",2,-87.75926023893358,41.95426799171707
1043,8/12/2021,"5237 W Eddy St, Chicago, IL",1,-87.75761783921902,41.944997763696215
1045,8/12/2021,"5245 W Leland Ave, Chicago, IL",1,-87.7591634956342,41.96568881978664
1046,1/17/2017,"5241 W Nelson St, Chicago, IL",5,-87.75760605,41.9357408
1049,6/24/2021,"5255 W Wolfram St, Chicago, IL",3,-87.757938382389,41.93221270320819
1050,10/11/2019,"5343 N Christiana Ave, Chicago, IL",5,-87.71250324671115,41.978406461457645
1051,3/9/2022,"5332 N Ludlam Ave, Chicago, IL",3,-87.76270549984253,41.9789588
1054,2/2/2017,"5376 N Meade Ave, Chicago, IL",1,-87.78121924971319,41.978831650000004
1055,11/17/2021,"5376 N Mulligan Ave, Chicago, IL",3,-87.78648559855061,41.97905748660074
1057,2/29/2020,"5340 N Oconto Ave, Chicago, IL",2,-87.80953797395159,41.97793434984235
1058,11/15/2018,"5346 N Oketo Ave, Chicago, IL",2,-87.81206858333333,41.97783041666666
1060,5/29/2019,"5393 S Cornell, Chicago, IL",2,-87.5953256,41.7547566
1061,11/10/2021,"5383 S DreXel Ave, Chicago, IL",3,-87.60400450020258,41.798274009993946
1062,8/31/2021,"5332 S DreXel Ave, Chicago, IL",2,-87.60365289572184,41.7986929
1064,12/17/2016,"5339 S Kimbark Ave, Chicago, IL",2,-87.59510701032025,41.79829943345037
1065,3/9/2017,"5394 S Kimbark Ave, Chicago, IL",2,-87.59510637446061,41.79826355276767
1070,2/19/2020,"5346 S Rutherford Ave, Chicago, IL",5,-87.7905266997039,41.79439178993276
1072,3/21/2022,"5352 W Fletcher Ave, Chicago, IL",5,-87.6511516,41.9389943
1073,1/25/2020,"5357 W Grace St, Chicago, IL",3,-87.76133670008112,41.9497996
1074,8/6/2021,"5335 W Newport Ave, Chicago, IL",2,-87.7600631410166,41.943304880062705
1075,1/28/2020,"5399 W Oakdale Ave, Chicago, IL",5,-87.76112128,41.93416408
1076,8/19/2019,"5364 W Potomac Ave, Chicago, IL",2,-87.76083899912211,41.903921
1077,1/25/2022,"5342 W Warwick Ave, Chicago, IL",5,-87.76049472544182,41.9488923
1078,1/24/2022,"5381 W Waveland Ave, Chicago, IL",3,-87.76012692515704,41.9479913
1079,11/27/2019,"5326 W Winona St, Chicago, IL",3,-87.76169837411983,41.9744787
1080,10/7/2020,"5444 N Lovejoy Ave, Chicago, IL",2,-87.77089760341545,41.980396
1083,5/6/2017,"5484 N Linder Ave, Chicago, IL",3,-87.76605006602166,41.980951038699814
1084,10/14/2017,"5422 N Linder Ave, Chicago, IL",5,-87.7654399234568,41.9805164
1085,9/4/2019,"5473 N Ludlam Ave, Chicago, IL",2,-87.76190416979534,41.9795668
1086,11/10/2021,"5464 N Melvina Ave, Chicago, IL",2,-87.78381087334938,41.98088695
1087,9/28/2019,"5455 N Menard Ave, Chicago, IL",1,-87.77336599329863,41.97903791646698
1088,2/14/2020,"5434 N Mobile Ave, Chicago, IL",1,-87.78548501647752,41.979657916877905
1089,3/3/2022,"5460 N Natchez Ave, Chicago, IL",5,-87.78887620649577,41.980751213501215
1090,9/3/2019,"5431 N Natoma Ave, Chicago, IL",3,-87.79251505433228,41.98062081883135
1091,9/4/2019,"5459 N Neenah Ave, Chicago, IL",3,-87.79009381222289,41.98048856813095
1092,3/21/2022,"5489 N New England Ave, Chicago, IL",1,-87.79852915000001,41.97997035
1093,12/27/2019,"5457 N Newcastle Ave, Chicago, IL",2,-87.79733920210084,41.9795536
1094,10/9/2019,"5422 N Sayre Ave, Chicago, IL",1,-87.80126822812908,41.98082475915298
1095,10/1/2019,"5458 S Harding Ave, Chicago, IL",1,-87.72184228182486,41.794024179662145
1096,4/8/2017,"5435 S Harper Ave, Chicago, IL",2,-87.58893469164434,41.7974045087334
1097,10/16/2018,"5491 S Harper Ave, Chicago, IL",2,-87.58893372339352,41.797354099175166
1098,3/4/2016,"5497 S Harper Ave, Chicago, IL",2,-87.58912782657319,41.79613932865954
1099,5/13/2016,"5418 S Harper Ave, Chicago, IL",2,-87.58915540968646,41.79738993487054
1101,1/23/2020,"5439 S Hoyne Ave, Chicago, IL",2,-87.67649752372881,41.7951009
1103,6/25/2021,"5435 S Ingleside Ave, Chicago, IL",3,-87.60306221143216,41.796952450000006
1104,3/30/2017,"5460 S Ingleside Ave, Chicago, IL",2,-87.60285373220613,41.79578263699965
1105,2/15/2020,"5486 S Lotus Ave, Chicago, IL",2,-87.75839005,41.79352425
1106,1/31/2022,"5431 S Nashville Ave, Chicago, IL",3,-87.78682040978944,41.79289461162877
1107,12/2/2019,"5457 S New England Ave, Chicago, IL",2,-87.79426214917218,41.7926469
1108,10/24/2019,"5493 S Ridgewood Ct, Chicago, IL",2,-87.5923190639453,41.79736255
1110,8/31/2021,"5493 W Henderson St, Chicago, IL",3,-87.76367455930581,41.94143279239903
1111,8/16/2017,"5418 W Van Buren St, Chicago, IL",2,-87.76091591641998,41.87469350252061
1114,12/21/2019,"5581 N Christiana Ave, Chicago, IL",2,-87.71219674376178,41.9815925
1115,7/21/2021,"5580 N Christiana Ave, Chicago, IL",5,-87.71236608554206,41.9816987853656
1117,4/5/2017,"5536 N Linder Ave, Chicago, IL",1,-87.76580793273286,41.9821538559694
1118,9/14/2019,"5597 N Linder Ave, Chicago, IL",2,-87.76581028481326,41.98202602039943
1121,3/2/2022,"5589 N Paris Ave, Chicago, IL",2,-87.8302867,41.9449351
1124,9/17/2019,"5599 N Wayne Ave, Chicago, IL",2,-87.66384492759876,41.98289419726361
1126,8/19/2019,"5573 S Hoyne Ave, Chicago, IL",3,-87.6765743683429,41.792206470401744
1128,12/9/2021,"5556 S Mason Ave, Chicago, IL",5,-87.7709167234373,41.7915476816913
1129,9/10/2019,"5591 S Neva Ave, Chicago, IL",3,-87.8005001944359,41.7908945
1130,2/14/2020,"5598 S Newcastle Ave, Chicago, IL",1,-87.7924821277802,41.79083815
1131,11/3/2021,"5554 S Normandy Ave, Chicago, IL",2,-87.78882999306722,41.7909955
1132,5/19/2021,"5531 S Union Ave, Chicago, IL",2,-87.642573,41.792586
1133,10/28/2019,"5590 W Ardmore Ave, Chicago, IL",1,-87.7666866451854,41.985954199480624
1134,11/4/2020,"5527 W Ardmore Ave, Chicago, IL",3,-87.76670816899903,41.98568025
1135,12/17/2021,"5515 W Ardmore Ave, Chicago, IL",2,-87.7679266575505,41.98577633578817
1137,12/7/2021,"5616 N Milwaukee Ave, Chicago, IL",1,-87.77543526599368,41.98395827690451
1138,10/1/2019,"5666 N Nottingham Ave, Chicago, IL",2,-87.80342970903558,41.98375235
1139,1/26/2022,"5685 N Parkside Ave, Chicago, IL",5,-87.76941209619311,41.98434698674204
1140,7/21/2021,"5668 N Rockwell Ave, Chicago, IL",1,-87.694916,42.0176244
1141,12/27/2016,"5694 N Rockwell St, Chicago, IL",5,-87.6944518539164,41.984406495881565
1143,2/16/2022,"5632 S Mason Ave, Chicago, IL",5,-87.7709677837956,41.78918745
1144,6/5/2019,"5621 S Parkside, Chicago, IL",2,-87.58378618239189,41.7710801
1147,9/17/2021,"5667 W Carmen Ave, Chicago, IL",5,-87.77016406126555,41.97379591581703
1148,5/28/2021,"5650 W Corcoran Pl, Chicago, IL",2,-87.76559448979592,41.88711357142857
1151,12/18/2017,"5735 N Kostner Ave, Chicago, IL",4,-87.73829012606797,41.986173000522015
1152,9/28/2021,"5744 N Manton Ave, Chicago, IL",3,-87.76909199709974,41.98661805431555
1153,2/8/2022,"5776 N Mobile Ave, Chicago, IL",3,-87.78497699806073,41.9861608
1156,11/19/2016,"5795 N Oketo Ave, Chicago, IL",3,-87.81175519403781,41.98515011112468
1157,9/14/2017,"5769 N Oketo Ave, Chicago, IL",3,-87.81218989383792,41.98452035
1158,12/19/2017,"5778 N Virginia Ave, Chicago, IL",3,-87.70583281884153,41.986006938774395
1159,1/29/2019,"5722 N Wayne Ave, Chicago, IL",1,-87.66312279700826,41.986590128875015
1160,3/15/2019,"5757 N Wayne Ave, Chicago, IL",1,-87.66350177272727,41.98566895454545
1163,12/23/2019,"5779 S Menard Ave, Chicago, IL",5,-87.76675819957546,41.7885602
1164,2/11/2020,"5784 S Moody Ave, Chicago, IL",5,-87.77562740067192,41.78715281814168
1165,11/2/2021,"5788 S Nagle Ave, Chicago, IL",2,-87.78297582507133,41.787980410088416
1166,12/23/2019,"5753 S Natoma Ave, Chicago, IL",3,-87.78760601507737,41.787032738747186
1167,4/4/2022,"5763 S Neenah Ave, Chicago, IL",2,-87.78554203043478,41.7872281
1168,2/11/2020,"5732 S New England Ave, Chicago, IL",3,-87.79371221826989,41.786967091257196
1169,11/12/2021,"5739 S Normandy Ave, Chicago, IL",1,-87.78919588723404,41.78685645
1171,3/8/2022,"5714 W Eddy St, Chicago, IL",3,-87.77128527319084,41.94510795
1172,9/17/2021,"5718 W Grover St, Chicago, IL",3,-87.7716412707188,41.970553363039926
1174,2/3/2020,"5719 W Huron St, Chicago, IL",2,-87.76868142210282,41.8931282
1175,2/1/2022,"5797 W Waveland Ave, Chicago, IL",2,-87.7710137565572,41.94757224394708
1176,12/15/2021,"5726 W Waveland Ave, Chicago, IL",5,-87.77114281816561,41.94757074528086
1178,10/16/2019,"5839 N Kilbourn Ave, Chicago, IL",5,-87.74062845370582,41.98775897139176
1180,9/17/2019,"5844 N Louise Ave, Chicago, IL",2,-87.75294953279624,41.98854276139182
1181,8/30/2019,"5831 N Luna Ave, Chicago, IL",2,-87.76609846946076,41.98714150417284
1183,8/6/2018,"5825 N Markham Ave, Chicago, IL",3,-87.7749979444881,41.98768909406132
1185,2/24/2020,"5877 N Mason Ave, Chicago, IL",2,-87.77676721522894,41.98796717561311
1186,7/26/2018,"5836 N Mobile Ave, Chicago, IL",3,-87.78510519593426,41.98792401104875
1189,9/1/2016,"5868 N Overhill Ave, Chicago, IL",2,-87.81920957620274,41.98616611774738
1190,7/1/2016,"5813 N Overhill Ave, Chicago, IL",2,-87.81919835116241,41.98625348372388
1191,9/1/2016,"5879 N Overhill Ave, Chicago, IL",3,-87.81931976763315,41.987044248964494
1192,8/5/2021,"5894 N Talman Ave, Chicago, IL",1,-87.69538607330152,41.9878209
1193,8/13/2021,"5844 N Virginia Ave, Chicago, IL",1,-87.70639190332729,41.98785477703446
1194,7/13/2021,"5830 N Wayne Ave, Chicago, IL",2,-87.66337976367925,41.98760637247513
1196,2/19/2020,"5847 S Moody Ave, Chicago, IL",2,-87.77559101151533,41.78619185671748
1197,3/23/2022,"5824 S Natoma Ave, Chicago, IL",2,-87.7878060026427,41.78645707135266
1198,1/23/2020,"5885 S New England Ave, Chicago, IL",4,-87.79387865762128,41.78547932630216
1199,11/9/2021,"5881 S New England Ave, Chicago, IL",2,-87.79368763315682,41.786299165584985
1200,10/7/2021,"5860 W Eastwood Ave, Chicago, IL",5,-87.77430325884521,41.965034194335246
1201,8/13/2019,"5832 W Patterson Ave, Chicago, IL",3,-87.77367799573122,41.94679540376648
1202,12/10/2019,"5843 W School St, Chicago, IL",2,-87.77307642128991,41.940498250000005
1203,10/23/2020,"5926 W Walton St, Chicago, IL",2,-87.77348508472221,41.89768085
1205,9/2/2021,"5938 N Drake Ave, Chicago, IL",5,-87.71750760417218,41.98944557039246
1206,12/23/2019,"5995 N East Circle Ave, Chicago, IL",5,-87.79990795050671,41.98898095
1207,2/22/2022,"5926 N East Circle Ave, Chicago, IL",2,-87.79991277924167,41.989883137238756
1208,12/14/2021,"5920 N East Circle Ave, Chicago, IL",2,-87.79992959481358,41.98990565220787
1209,9/20/2018,"5991 N Hermitage Ave, Chicago, IL",1,-87.67303287755102,41.9891718367347
1210,4/27/2016,"5913 N Kilpatrick Ave, Chicago, IL",1,-87.745786,41.989734
1212,11/11/2017,"5923 N Kostner Ave, Chicago, IL",2,-87.73846032141824,41.989659910202704
1213,4/28/2018,"5998 N Kostner Ave, Chicago, IL",2,-87.73845492653797,41.98934462644029
1214,1/7/2020,"5958 N Leader Ave, Chicago, IL",4,-87.75566071428572,41.98982385714286
1215,9/22/2018,"5989 N Legett Ave, Chicago, IL",3,-87.7566261707317,41.99011646341463
1216,2/14/2022,"5995 N Melvina Ave, Chicago, IL",5,-87.78264961119655,41.989522435558996
1217,2/22/2022,"5929 N Merrimac Ave, Chicago, IL",5,-87.78426365575737,41.98907755
1218,7/27/2016,"5959 N Mulligan Ave, Chicago, IL",1,-87.78629634137992,41.989129257899755
1219,3/9/2022,"5963 N Newburg Ave, Chicago, IL",2,-87.78942921101066,41.9894973
1220,10/20/2021,"5929 N Newburg Ave, Chicago, IL",2,-87.7889839959128,41.989636787184246
1221,3/23/2022,"5956 N Richmond St, Chicago, IL",3,-87.70292287755102,41.99021283673469
1222,2/15/2022,"5982 N Richmond St, Chicago, IL",5,-87.70292535714286,41.99028364285714
1223,9/3/2016,"5981 S Ada St, Chicago, IL",1,-87.6582115625,41.7865690625
1224,6/15/2021,"5928 S Kilbourn Ave, Chicago, IL",1,-87.73525654811627,41.78433344228869
1225,9/18/2021,"5981 S Komensky Ave, Chicago, IL",4,-87.72405152162656,41.78502228717279
1226,11/29/2021,"5935 S Kostner Ave, Chicago, IL",1,-87.73259096969184,41.7843435279623
1228,9/2/2021,"5930 S May St, Chicago, IL",2,-87.65354200175,41.785270631428354
1229,10/21/2021,"5968 W Byron St, Chicago, IL",4,-87.77589377330952,41.951137402003965
1230,11/7/2018,"5984 W Byron St, Chicago, IL",1,-87.7763245892661,41.95113165939178
1231,3/3/2020,"5945 W Eddy St, Chicago, IL",5,-87.77578445806863,41.94494511294301
1232,6/11/2019,"5976 W Midway Park, Chicago, IL",2,-87.77387285426686,41.88883463416752
1233,9/28/2021,"5988 W Patterson Ave, Chicago, IL",5,-87.77542714647474,41.9469074
1234,2/17/2022,"5933 W Peterson Ave, Chicago, IL",3,-87.77745477777778,41.9902787037037
1235,10/4/2019,"5958 W Warwick Ave, Chicago, IL",4,-87.77588499093127,41.948591078039854
1236,9/9/2017,"593 E 46Th St, Chicago, IL",3,-87.61175691040866,41.81119172581578
1237,11/12/2020,"512 E 88Th St, Chicago, IL",2,-87.61013635122222,41.734826646924375
1238,6/3/2021,"536 E 88Th St, Chicago, IL",2,-87.6112481553302,41.73492615
1239,1/11/2017,"522 E 91St St, Chicago, IL",2,-87.61063636740313,41.72917551377988
1240,2/18/2022,"579 N Albany Ave, Chicago, IL",5,-87.70408092924893,41.89160149064376
1241,2/18/2022,"577 N Long Ave, Chicago, IL",2,-87.76060249232498,41.89087545252442
1242,8/19/2017,"510 N St Louis Ave, Chicago, IL",1,-87.71385495932867,41.891091097601816
1243,4/10/2018,"554 N St Louis Ave, Chicago, IL",1,-87.713652,41.891699
1244,10/15/2016,"558 S Clinton St, Chicago, IL",2,-87.6408596307466,41.87490561284806
1245,2/14/2022,"545 W 107Th St, Chicago, IL",2,-87.63739023643927,41.699783445833546
1246,2/8/2022,"552 W 120Th St, Chicago, IL",2,-87.63609502295792,41.676138805888186
1247,5/19/2017,"566 W 128Th St, Chicago, IL",4,-87.63402313631089,41.66139810752492
1248,12/10/2021,"576 W 38Th St, Chicago, IL",2,-87.639455,41.82528378571429
1249,9/23/2019,"578 W 97Th St, Chicago, IL",1,-87.63772370596718,41.717980697859915
1250,9/17/2018,"581 W Aldine Ave, Chicago, IL",2,-87.64325144,41.94216250666667
1251,12/9/2021,"522 W Arlington Pl, Chicago, IL",1,-87.64378550870514,41.92664761916292
1252,10/26/2021,"555 W Belmont Ave, Chicago, IL",3,-87.64386493939394,41.94013636363636
1253,10/2/2018,"585 W Dickens Ave, Chicago, IL",1,-87.64333749833393,41.920160066700845
1254,10/18/2019,"6096 N Drake Ave, Chicago, IL",1,-87.71738720885338,41.991815849999995
1255,9/14/2019,"6014 N Kedzie Ave, Chicago, IL",2,-87.70909412835137,41.99278313242493
1257,7/22/2021,"6034 N Landers Ave, Chicago, IL",2,-87.7525515678631,41.99152803127801
1258,3/10/2020,"6057 N Marmora Ave, Chicago, IL",2,-87.77572669044989,41.990816699999996
1260,9/28/2021,"6098 N Mason Ave, Chicago, IL",4,-87.77654042604689,41.991433866178866
1261,8/30/2019,"6017 N Mason Ave, Chicago, IL",1,-87.77677021996708,41.99092613878283
1262,1/31/2020,"6070 N Menard Ave, Chicago, IL",1,-87.77277699156339,41.990662
1264,7/29/2021,"6079 N Rockwell St, Chicago, IL",5,-87.69469006493976,41.991991358900684
1265,9/4/2019,"6033 N Sacramento Ave, Chicago, IL",1,-87.70397807575,41.990899049999996
1266,3/10/2020,"6017 N Saint Louis Ave, Chicago, IL",3,-87.71656325342852,41.99131394231833
1267,3/14/2022,"6069 N St Louis Ave, Chicago, IL",2,-87.71616138091554,41.9908359
1268,3/6/2020,"6010 S Austin Ave, Chicago, IL",2,-87.77178407160791,41.78252902000735
1269,5/20/2021,"6033 S Bishop St, Chicago, IL",5,-87.6605779903749,41.78410506494975
1270,6/8/2021,"6015 S Kenneth Ave, Chicago, IL",2,-87.73398526590717,41.78281327782899
1271,2/15/2020,"6010 S Kilpatrick Ave, Chicago, IL",2,-87.73987058110008,41.78262122087223
1272,12/10/2019,"6056 S Mobile Ave, Chicago, IL",3,-87.7788866018156,41.78245608084138
1273,10/23/2018,"6083 S Monitor Ave, Chicago, IL",5,-87.76811536355174,41.782502815963575
1275,11/24/2021,"6016 S Normandy Ave, Chicago, IL",3,-87.78862380903028,41.78148730948105
1276,10/12/2021,"6093 W Berenice Ave, Chicago, IL",2,-87.77865371069191,41.95036773113694
1278,7/19/2018,"6174 N Avers Ave, Chicago, IL",3,-87.72527465719197,41.99356931696251
1279,9/27/2018,"6183 N Campbell Ave, Chicago, IL",2,-87.69208150975177,41.993463312056846
1280,6/18/2021,"6137 N Drake Ave, Chicago, IL",2,-87.71783286971085,41.993048400792645
1281,1/6/2018,"6175 N Karlov Ave, Chicago, IL",5,-87.73141858384109,41.99338015037766
1283,12/20/2021,"6182 N Kilbourn Ave, Chicago, IL",2,-87.73927490191716,41.992130191672864
1285,9/3/2019,"6147 N Maplewood Ave, Chicago, IL",2,-87.69369505370145,41.993105650000004
1286,7/8/2016,"6184 N Mcclellan Ave, Chicago, IL",2,-87.77096081489474,41.995469914240296
1289,8/19/2016,"6194 N Ottawa Ave, Chicago, IL",2,-87.8194930749863,41.991010193278264
1290,3/21/2022,"6117 S Drake Ave, Chicago, IL",5,-87.7134666,41.8407413
1291,8/30/2016,"6131 S Ellis Ave, Chicago, IL",5,-87.6014596003414,41.7833953
1292,3/9/2017,"6126 S Ellis Ave, Chicago, IL",5,-87.60101101343562,41.78291886635955
1293,12/11/2019,"6191 S Kilbourn Ave, Chicago, IL",2,-87.73492738035844,41.78085021551961
1294,11/9/2016,"6145 S Kolmar Ave, Chicago, IL",3,-87.73614254824687,41.78067544678554
1295,8/13/2018,"6163 S Meade Ave, Chicago, IL",5,-87.77390381521155,41.77990747568827
1296,12/27/2019,"6153 S Moody Ave, Chicago, IL",2,-87.77538793706928,41.781012707459
1298,2/25/2020,"6187 S Paulina St, Chicago, IL",2,-87.66681867703008,41.78223008329082
1299,1/12/2017,"6190 S Rhodes Ave, Chicago, IL",2,-87.61219659589008,41.78295760123632
1300,11/19/2016,"6182 W Dakin St, Chicago, IL",5,-87.78034688553262,41.95184935
1301,1/9/2019,"6179 W Dakin St, Chicago, IL",2,-87.7803584632019,41.95224845
1302,11/19/2016,"6113 W Dakin St, Chicago, IL",5,-87.77999077019295,41.95197913633956
1303,12/20/2021,"6151 W Giddings St, Chicago, IL",2,-87.78139854538603,41.96652663299329
1304,12/7/2019,"6168 W Lawrence Ave, Chicago, IL",3,-87.78148669434637,41.967636988430186
1305,9/11/2019,"6152 W Leland Ave, Chicago, IL",2,-87.78064649999999,41.965947799999995
1306,1/23/2020,"6128 W Peterson Ave, Chicago, IL",3,-87.78061395672259,41.99026869390229
1307,1/23/2020,"6141 W Waveland Ave, Chicago, IL",2,-87.78077254445827,41.947332599999996
1309,8/17/2018,"6251 N Kedvale Ave, Chicago, IL",1,-87.73242467491691,41.99464397976896
1310,4/13/2022,"6259 N Lakewood Ave, Chicago, IL",2,-87.66325333709,41.9960989
1311,3/3/2020,"6221 N Lakewood Ave, Chicago, IL",2,-87.66325060091486,41.996009
1314,7/26/2021,"6282 N Leona Ave, Chicago, IL",1,-87.75473873708144,41.9957956773027
1315,1/15/2020,"6281 N Leroy Ave, Chicago, IL",2,-87.75725235836879,41.994807797098396
1316,1/27/2020,"6293 N Louise Ave, Chicago, IL",5,-87.76637200243881,41.99494373448826
1318,9/7/2019,"6236 N Richmond St, Chicago, IL",5,-87.70309547589333,41.995376860393094
1319,6/28/2021,"6281 N Troy St, Chicago, IL",1,-87.70794716003432,41.99524033290793
1321,3/26/2016,"6254 S Kedzie Ave, Chicago, IL",2,-87.70303059818778,41.779231577096816
1323,9/5/2019,"6227 S Mason Ave, Chicago, IL",3,-87.77016966666666,41.77805554166667
1324,12/28/2019,"6286 S Mason Ave, Chicago, IL",2,-87.77058607383381,41.7790584
1325,12/13/2021,"6285 S Neenah Ave, Chicago, IL",1,-87.7848474520198,41.778386819147805
1326,5/25/2021,"6252 W 63Rd Pl, Chicago, IL",2,-87.77730503222826,41.7771029
1327,5/23/2019,"6273 W 64Th St, Chicago, IL",2,-87.77797971244986,41.77583933064172
1331,6/5/2018,"6273 W Newport Ave, Chicago, IL",3,-87.78318679826626,41.94302830623081
1332,8/11/2018,"6284 W Peterson Ave, Chicago, IL",1,-87.78481863636364,41.99023081818182
1333,12/16/2021,"6383 N Albany Ave, Chicago, IL",5,-87.70739694865411,41.99722445
1334,12/28/2020,"6386 N Hamlin Ave, Chicago, IL",2,-87.72386613236377,41.996353368250126
1335,3/28/2022,"6398 N Kirkwood Ave, Chicago, IL",5,-87.73996340503714,41.99634085374967
1336,3/4/2017,"6317 N Kirkwood Ave, Chicago, IL",5,-87.73946982708748,41.99669165
1337,5/6/2017,"6354 N Kirkwood Ave, Chicago, IL",5,-87.73995797187692,41.99693270898537
1338,1/25/2022,"6362 N Kolmar Ave, Chicago, IL",2,-87.742167,41.997139
1340,8/22/2019,"6391 N Leroy Ave, Chicago, IL",4,-87.75604923355647,41.996259202709226
1341,8/3/2021,"6352 N Magnolia Ave, Chicago, IL",2,-87.66190047706729,41.99776274557389
1342,11/18/2021,"6356 N Melvina Ave, Chicago, IL",4,-87.78298,41.99605475
1343,2/25/2020,"6371 N Neenah Ave, Chicago, IL",2,-87.78979645956028,41.996701630447006
1344,12/13/2019,"6399 N Neenah Ave, Chicago, IL",2,-87.79001178133679,41.99699333567908
1345,7/8/2017,"6357 N Nokomis Ave, Chicago, IL",2,-87.75978959763313,41.9969372028963
1347,1/28/2017,"6372 N Odell Ave, Chicago, IL",5,-87.8100705,41.99644275
1348,7/5/2018,"6389 N Odell Ave, Chicago, IL",1,-87.81020369535031,41.996824365032786
1349,12/2/2021,"6352 N Oriole Ave, Chicago, IL",2,-87.81658010815902,41.99673884435368
1350,2/4/2020,"6363 N Tripp Ave, Chicago, IL",1,-87.73509810526315,41.996941842105265
1351,3/9/2022,"6385 S Champlain Ave, Chicago, IL",2,-87.60967519713837,41.77972542893725
1353,4/6/2022,"6367 S Kostner Ave, Chicago, IL",2,-87.7322050136778,41.77784925
1354,11/5/2021,"6350 S Marshfield Ave, Chicago, IL",2,-87.66556662838674,41.77836767170215
1356,2/4/2020,"6352 W Hyacinth St, Chicago, IL",4,-87.78584679136557,41.99170105
1357,3/30/2022,"6311 W Warwick Ave, Chicago, IL",2,-87.78540156374908,41.948317777100385
1358,1/22/2020,"6418 N Fairfield Ave, Chicago, IL",2,-87.6983547448311,41.999032448014944
1359,6/3/2021,"6488 N Fairfield Ave, Chicago, IL",5,-87.69857244900014,41.99893380877048
1363,7/30/2018,"6465 N Nordica Ave, Chicago, IL",3,-87.80309596116405,41.99818281961908
1364,9/18/2019,"6490 N Oketo Ave, Chicago, IL",2,-87.81312195168918,41.998263
1366,11/16/2021,"6412 N Tahoma Ave, Chicago, IL",5,-87.76300325459474,41.99891316838656
1367,2/24/2020,"6483 S Keating Ave, Chicago, IL",5,-87.74111379233837,41.776304795689875
1368,3/28/2022,"6499 S Langley Ave, Chicago, IL",2,-87.60821841638939,41.777742764632876
1369,10/19/2020,"6516 N Spokane Ave, Chicago, IL",2,-87.75970785268007,41.999016999999995
1370,3/4/2020,"6596 N Caldwell Ave, Chicago, IL",3,-87.76713884306683,41.997415633035025
1371,3/24/2018,"6580 N Fairfield Ave, Chicago, IL",5,-87.69880829918915,42.00045415
1372,4/20/2017,"6525 N Hiawatha Ave, Chicago, IL",2,-87.7626439,41.9996169
1373,12/16/2019,"6519 N Maplewood Ave, Chicago, IL",1,-87.6938982068402,42.00034945
1374,8/16/2018,"6511 N Minnetonka Ave, Chicago, IL",5,-87.76759423076923,41.99960946153846
1379,11/5/2021,"6515 N Spokane Ave, Chicago, IL",1,-87.75912696168992,41.99944153442367
1380,9/26/2019,"6513 N Washtenaw Ave, Chicago, IL",4,-87.69739400681478,42.00066643849418
1381,1/22/2020,"6560 N Waukesha Ave, Chicago, IL",1,-87.7687582905549,41.9994035
1382,5/19/2021,"6539 S Claremont Ave, Chicago, IL",1,-87.68203193483363,41.77394191789119
1383,8/14/2018,"6584 S DreXel Ave, Chicago, IL",1,-87.60349531681658,41.77549274587537
1384,11/15/2021,"6564 S Kilpatrick Ave, Chicago, IL",3,-87.7395974845154,41.77373332551013
1385,6/4/2019,"6589 W 60Th St, Chicago, IL",2,-87.78566952619592,41.783026299348634
1386,4/5/2022,"6580 W Clarence Ave, Chicago, IL",3,-87.79059086645876,41.994532152042524
1387,9/9/2019,"6542 W Foster Ave, Chicago, IL",4,-87.79219990692584,41.97569931481879
1389,7/15/2017,"6628 N Ashland Ave, Chicago, IL",2,-87.67080049358157,42.00250440000001
1390,10/14/2017,"6654 N Ashland Ave, Chicago, IL",5,-87.670402,42.002519
1391,3/17/2017,"6641 N Bosworth Ave, Chicago, IL",4,-87.66920611675677,42.00306057438172
1392,8/1/2018,"6685 N Bosworth Ave, Chicago, IL",3,-87.66958730561892,42.0025371
1393,3/4/2020,"6678 N Lehigh Ave, Chicago, IL",1,-87.76798720901947,42.00185919572581
1395,9/28/2021,"6625 N Maplewood Ave, Chicago, IL",1,-87.69356620164,42.002810265873045
1397,10/28/2016,"6650 N Onarga Ave, Chicago, IL",5,-87.81048551748644,42.00098163561677
1398,6/3/2021,"6653 N Washtenaw Ave, Chicago, IL",3,-87.69744044757816,42.00255006112956
1399,5/18/2021,"6678 S Bishop St, Chicago, IL",1,-87.66049050000001,41.7724715
1400,5/17/2021,"6622 S Laflin St, Chicago, IL",2,-87.66170862516965,41.77282871449738
1401,6/22/2021,"6658 S Maryland Ave, Chicago, IL",3,-87.604669,41.773273
1402,8/26/2019,"6619 S Rockwell St, Chicago, IL",5,-87.68864250326496,41.772869549999996
1403,12/12/2019,"6614 W Foster Ave, Chicago, IL",3,-87.79475645331601,41.975785599999995
1406,10/7/2019,"6731 N Jean Ave, Chicago, IL",1,-87.77498448297547,42.0043232
1407,9/19/2018,"6755 N Lightfoot Ave, Chicago, IL",5,-87.77382922139216,42.00385474835718
1408,3/4/2017,"6772 N Loleta Ave, Chicago, IL",5,-87.77174905494083,42.00322632689621
1409,8/20/2021,"6798 N Newgard Ave, Chicago, IL",2,-87.66706564,42.00519908
1411,10/18/2021,"6751 N Whipple St, Chicago, IL",1,-87.70568420281565,42.0036063144029
1412,1/12/2017,"6764 S Kedvale Ave, Chicago, IL",3,-87.72592907153148,41.770737350000005
1413,7/29/2021,"6729 S Loomis Blvd, Chicago, IL",2,-87.65925121905467,41.77141424329727
1414,10/2/2019,"6797 S Morgan St, Chicago, IL",1,-87.64952160721299,41.77076928851951
1415,2/10/2020,"6743 S Normal Blvd, Chicago, IL",2,-87.63718630730048,41.77103000033891
1416,6/1/2019,"6781 W 56Th St, Chicago, IL",5,-87.79117295889621,41.79027316850009
1417,9/30/2020,"6808 S Marshfield Ave, Chicago, IL",4,-87.66544070312528,41.7699639
1418,9/9/2019,"6895 N Loleta Ave, Chicago, IL",2,-87.76993919534623,42.00504880465377
1420,3/1/2022,"6849 N Olcott Ave, Chicago, IL",2,-87.81358105925248,42.005832711944684
1423,5/25/2018,"6891 N Waukesha Ave, Chicago, IL",5,-87.76502634705928,42.00698703779667
1425,8/27/2019,"6888 N Wildwood Ave, Chicago, IL",5,-87.77709207973969,42.004793201676726
1427,5/17/2021,"6836 S Constance Ave, Chicago, IL",1,-87.58019882478065,41.77007899122587
1428,6/18/2016,"6834 S Constance Ave, Chicago, IL",1,-87.58020576689718,41.77033629951693
1429,8/20/2016,"6845 S Constance Ave, Chicago, IL",2,-87.58021811472962,41.77078658380689
1430,5/18/2021,"6844 S Harper Ave, Chicago, IL",2,-87.58810576923076,41.770013538461534
1431,10/20/2021,"6811 W Higgins Ave, Chicago, IL",2,-87.79894141397331,41.97921105
1433,10/29/2016,"6936 N Central Ave, Chicago, IL",2,-87.76182449737026,42.00707136435256
1434,10/1/2019,"6995 N Chicora Ave, Chicago, IL",3,-87.76583303082097,42.007669259456165
1436,1/29/2020,"6954 N Oriole Ave, Chicago, IL",2,-87.8167300876159,42.0067909
1438,1/14/2020,"6956 S Karlov Ave, Chicago, IL",2,-87.72476780000001,41.76610232
1439,8/9/2021,"6988 W Hobart Ave, Chicago, IL",2,-87.80276754799053,41.98502583705221
1440,3/1/2022,"6919 W Hobart Ave, Chicago, IL",1,-87.8023943963458,41.98465679813621
1441,11/15/2021,"668 E 100Th St, Chicago, IL",2,-87.60714487073992,41.7127043
1442,9/27/2021,"622 E 33Rd Pl, Chicago, IL",1,-87.610553,41.834357
1444,3/30/2022,"646 N Pine Ave, Chicago, IL",2,-87.76332519622814,41.891559466652126
1445,6/21/2021,"615 N Pine St, Chicago, IL",2,-88.1961933,41.8882756
1446,6/11/2021,"648 N Sawyer Ave, Chicago, IL",2,-87.70778750980843,41.89226346381354
1447,11/7/2019,"679 W 129Th Pl, Chicago, IL",1,-87.63824505161826,41.65824612170027
1449,3/6/2020,"623 W Deming Pl, Chicago, IL",1,-87.64485387547172,41.92804081824548
1451,7/27/2021,"7037 N Greenview Ave, Chicago, IL",4,-87.66815956476103,42.01054565
1454,8/4/2018,"7082 N Mcalpin Ave, Chicago, IL",2,-87.779892,42.009226
1455,8/22/2019,"7022 N Tahoma Ave, Chicago, IL",4,-87.78172627896899,42.00999668472866
1456,5/19/2021,"7059 S Eggleston Ave, Chicago, IL",2,-87.63566272661382,41.76634415
1459,2/9/2022,"7194 N Oleander Ave, Chicago, IL",4,-87.81531559999999,42.010492150000005
1460,9/21/2019,"7119 S Artesian Ave, Chicago, IL",2,-87.6847210149669,41.763638900000004
1461,9/16/2019,"7118 S Dobson Ave, Chicago, IL",1,-87.59956790513301,41.76494114353404
1462,5/24/2021,"7128 S Hermitage Ave, Chicago, IL",3,-87.66716577427965,41.76326345
1463,5/22/2018,"7162 W 64Th Pl, Chicago, IL",1,-87.79892385282194,41.77458804184336
1464,11/29/2021,"7272 N Damen Ave, Chicago, IL",2,-87.68037898381309,42.01381323898604
1467,12/7/2021,"7248 N Oriole Ave, Chicago, IL",1,-87.81648175528046,42.01306261106317
1468,6/9/2021,"7275 S Calumet Ave, Chicago, IL",5,-87.61668268205311,41.76228273854894
1469,1/15/2020,"7284 S Cornell Ave, Chicago, IL",2,-87.58493773211922,41.7627703
1470,2/4/2020,"7247 S Euclid Ave, Chicago, IL",5,-87.57833871132385,41.762693999999996
1471,2/15/2020,"7244 S Hermitage Ave, Chicago, IL",2,-87.66763667428023,41.7618998
1472,9/9/2019,"7247 S Talman Ave, Chicago, IL",2,-87.68916037922239,41.76136627278323
1473,3/18/2022,"7221 W Bryn Mawr Ave, Chicago, IL",1,-87.80796750228821,41.9828156413309
1474,2/2/2022,"7217 W Lunt Ave, Chicago, IL",2,-87.80864312346765,42.00825415
1475,9/18/2019,"7289 W Myrtle Ave, Chicago, IL",5,-87.80921636953191,41.993468968189326
1476,3/11/2020,"7267 W Pratt Ave, Chicago, IL",1,-87.80869766724693,42.0046419
1479,8/18/2018,"7317 N Meade Ave, Chicago, IL",5,-87.77879870000001,42.014590150000004
1480,10/28/2021,"7350 N Meade Ave, Chicago, IL",1,-87.7784884357272,42.01428100435213
1482,12/31/2019,"7330 N Olcott Ave, Chicago, IL",5,-87.814037672412,42.01384997260947
1483,11/17/2021,"7333 N Osceola Ave, Chicago, IL",2,-87.8124304516623,42.01380505
1484,11/9/2021,"7369 N Ottawa Ave, Chicago, IL",5,-87.8176924489383,42.01421418827351
1485,8/5/2021,"7311 N Ottawa Ave, Chicago, IL",1,-87.81769306117287,42.014145985341884
1486,5/25/2021,"7389 S Artesian Ave, Chicago, IL",3,-87.68445284156597,41.76016685928332
1487,10/21/2021,"7344 S Eberhart Ave, Chicago, IL",2,-87.61262367353648,41.76111150089774
1488,12/1/2021,"7340 S Indiana Ave, Chicago, IL",5,-87.62008234595068,41.76052247026045
1489,6/15/2021,"7325 S Marshfield Ave, Chicago, IL",1,-87.66502164842387,41.76026884534346
1490,3/8/2022,"7352 W Ibsen St, Chicago, IL",1,-87.8105585897963,42.00627246259172
1492,7/12/2021,"7471 N Claremont Ave, Chicago, IL",1,-87.68874380811567,42.01711651716379
1495,12/14/2021,"7426 N Oketo Ave, Chicago, IL",5,-87.81177956361651,42.0165645
1496,3/1/2022,"7474 N Oriole Ave, Chicago, IL",5,-87.81623374944124,42.01628505567344
1497,10/18/2019,"7468 N Ottawa Ave, Chicago, IL",2,-87.81767414564881,42.01651856122578
1498,8/26/2019,"7466 N Paulina St, Chicago, IL",5,-87.67241525675675,42.01717806756757
1499,10/2/2019,"7470 N Rockwell St, Chicago, IL",2,-87.69522013107009,42.016356650000006
1500,9/28/2016,"7474 S Claremont Ave, Chicago, IL",1,-87.681852,41.757941
1501,1/30/2020,"7436 S Maplewood Ave, Chicago, IL",2,-87.68648852598878,41.7587943
1502,12/9/2019,"7497 S Merrill Ave, Chicago, IL",5,-87.5725650909091,41.75909245454545
1503,3/4/2022,"7437 W Palatine Ave, Chicago, IL",1,-87.81238075062015,41.9952058
1505,1/28/2022,"7534 N Oketo Ave, Chicago, IL",4,-87.811333,42.018277
1507,9/10/2018,"7539 N Washtenaw Ave, Chicago, IL",1,-87.69713032632049,42.01877752596299
1509,10/26/2020,"7577 S Cregier Ave, Chicago, IL",3,-87.58072727429149,41.75747785
1510,12/6/2021,"7523 S Paulina St, Chicago, IL",2,-87.66613062492365,41.75637406437741
1511,3/11/2020,"7552 S Saint Louis Ave, Chicago, IL",4,-87.70978311111111,41.75554322222222
1512,10/18/2021,"7580 S Winchester Ave, Chicago, IL",3,-87.67197460529314,41.75607670102538
1513,2/10/2022,"7594 W Howard St, Chicago, IL",3,-87.81539733362501,42.018685766433165
1514,5/19/2021,"7667 S ColfaX Ave, Chicago, IL",3,-87.56112080949032,41.7558774
1516,10/15/2019,"7619 S Hermitage Ave, Chicago, IL",3,-87.66729290078207,41.754425130501005
1517,1/30/2020,"7696 S Honore St, Chicago, IL",2,-87.66972263532708,41.754523525905896
